COUNTRY_	POSTAL_CODE_	PLACE_NAME_	ADMIN1_NAME_	ADMIN1_CODE_	ADMIN2_NAME_	ADMIN2_CODE_	ADMIN3_NAME_	ADMIN3_CODE_	LATITUDE_	LONGITUDE_	ACCURACY_
CH	5000	Aarau		AG	Bezirk Aarau	1901	Aarau	4001	47.3925	8.0442	4
CH	5004	Aarau		AG	Bezirk Aarau	1901	Aarau	4001	47.3925	8.0442	4
CH	5017	Barmelweid		AG	Bezirk Aarau	1901	Erlinsbach (AG)	4005	47.4159	7.9764	4
CH	5018	Erlinsbach		AG	Bezirk Aarau	1901	Erlinsbach (AG)	4005	47.4052	8.0151	4
CH	5022	Rombach		AG	Bezirk Aarau	1901	Küttigen	4008	47.4047	8.0459	4
CH	5023	Biberstein		AG	Bezirk Aarau	1901	Biberstein	4002	47.4164	8.0851	4
CH	5024	Küttigen		AG	Bezirk Aarau	1901	Küttigen	4008	47.4157	8.0477	4
CH	5025	Asp		AG	Bezirk Aarau	1901	Densbüren	4004	47.445	8.0503	4
CH	5026	Densbüren		AG	Bezirk Aarau	1901	Densbüren	4004	47.4526	8.0533	4
CH	5032	Aarau Rohr		AG	Bezirk Aarau	1901	Aarau	4001	47.4017	8.0796	4
CH	5033	Buchs AG		AG	Bezirk Aarau	1901	Buchs (AG)	4003	47.3936	8.0823	4
CH	5034	Suhr		AG	Bezirk Aarau	1901	Suhr	4012	47.3717	8.0797	4
CH	5035	Unterentfelden		AG	Bezirk Aarau	1901	Unterentfelden	4013	47.3681	8.0502	4
CH	5036	Oberentfelden		AG	Bezirk Aarau	1901	Oberentfelden	4010	47.3564	8.0459	4
CH	5037	Muhen		AG	Bezirk Aarau	1901	Muhen	4009	47.3367	8.0541	4
CH	5042	Hirschthal		AG	Bezirk Aarau	1901	Hirschthal	4007	47.3187	8.0564	4
CH	5722	Gränichen		AG	Bezirk Aarau	1901	Gränichen	4006	47.3593	8.1024	4
CH	5300	Turgi		AG	Bezirk Baden	1902	Turgi	4042	47.492	8.2541	4
CH	5301	Siggenthal Station		AG	Bezirk Baden	1902	Untersiggenthal	4044	47.5174	8.2395	4
CH	5303	Würenlingen		AG	Bezirk Baden	1902	Würenlingen	4047	47.5336	8.2567	4
CH	5400	Baden		AG	Bezirk Baden	1902	Baden	4021	47.4733	8.3059	4
CH	5404	Baden		AG	Bezirk Baden	1902	Baden	4021	47.4733	8.3059	4
CH	5405	Dättwil AG		AG	Bezirk Baden	1902	Baden	4021	47.4551	8.2847	4
CH	5406	Rütihof		AG	Bezirk Baden	1902	Baden	4021	47.44	8.2712	4
CH	5408	Ennetbaden		AG	Bezirk Baden	1902	Ennetbaden	4026	47.4804	8.3235	4
CH	5412	Vogelsang AG		AG	Bezirk Baden	1902	Gebenstorf	4029	47.4943	8.2382	4
CH	5412	Gebenstorf		AG	Bezirk Baden	1902	Gebenstorf	4029	47.4814	8.2395	4
CH	5413	Birmenstorf AG		AG	Bezirk Baden	1902	Birmenstorf (AG)	4024	47.4615	8.2482	4
CH	5415	Nussbaumen AG		AG	Bezirk Baden	1902	Obersiggenthal	4038	47.4872	8.2917	4
CH	5415	Hertenstein AG		AG	Bezirk Baden	1902	Obersiggenthal	4038	47.4871	8.3115	4
CH	5415	Rieden AG		AG	Bezirk Baden	1902	Obersiggenthal	4038	47.4846	8.3018	4
CH	5416	Kirchdorf AG		AG	Bezirk Baden	1902	Obersiggenthal	4038	47.4966	8.2754	4
CH	5417	Untersiggenthal		AG	Bezirk Baden	1902	Untersiggenthal	4044	47.5021	8.2555	4
CH	5420	Ehrendingen		AG	Bezirk Baden	1902	Ehrendingen	4049	47.5025	8.3473	4
CH	5423	Freienwil		AG	Bezirk Baden	1902	Freienwil	4028	47.503	8.3277	4
CH	5430	Wettingen		AG	Bezirk Baden	1902	Wettingen	4045	47.4705	8.3164	4
CH	5432	Neuenhof		AG	Bezirk Baden	1902	Neuenhof	4034	47.4526	8.3258	4
CH	5436	Würenlos		AG	Bezirk Baden	1902	Würenlos	4048	47.4421	8.3644	4
CH	5442	Fislisbach		AG	Bezirk Baden	1902	Fislisbach	4027	47.439	8.2969	4
CH	5443	Niederrohrdorf		AG	Bezirk Baden	1902	Niederrohrdorf	4035	47.4235	8.3064	4
CH	5444	Künten		AG	Bezirk Baden	1902	Künten	4031	47.3889	8.331	4
CH	5452	Oberrohrdorf		AG	Bezirk Baden	1902	Oberrohrdorf	4037	47.4183	8.3198	4
CH	5453	Remetschwil		AG	Bezirk Baden	1902	Remetschwil	4039	47.4083	8.3319	4
CH	5454	Bellikon		AG	Bezirk Baden	1902	Bellikon	4022	47.3916	8.3493	4
CH	5506	Mägenwil		AG	Bezirk Baden	1902	Mägenwil	4032	47.4125	8.233	4
CH	5507	Mellingen		AG	Bezirk Baden	1902	Mellingen	4033	47.419	8.2733	4
CH	5512	Wohlenschwil		AG	Bezirk Baden	1902	Wohlenschwil	4046	47.4137	8.2573	4
CH	5608	Stetten AG		AG	Bezirk Baden	1902	Stetten (AG)	4041	47.4017	8.3019	4
CH	8109	Kloster Fahr		AG	Bezirk Baden	1902	Würenlos	4048	47.4473	8.3637	1
CH	8956	Killwangen		AG	Bezirk Baden	1902	Killwangen	4030	47.4318	8.3481	4
CH	8957	Spreitenbach		AG	Bezirk Baden	1902	Spreitenbach	4040	47.4202	8.363	4
CH	8962	Bergdietikon		AG	Bezirk Baden	1902	Bergdietikon	4023	47.3892	8.3862	4
CH	5445	Eggenwil		AG	Bezirk Bremgarten	1903	Eggenwil	4066	47.3704	8.3395	4
CH	5522	Tägerig		AG	Bezirk Bremgarten	1903	Tägerig	4077	47.4056	8.2768	4
CH	5524	Nesselnbach		AG	Bezirk Bremgarten	1903	Niederwil (AG)	4072	47.3897	8.2914	4
CH	5524	Niederwil AG		AG	Bezirk Bremgarten	1903	Niederwil (AG)	4072	47.3897	8.2914	4
CH	5525	Fischbach-Göslikon		AG	Bezirk Bremgarten	1903	Fischbach-Göslikon	4067	47.3691	8.3111	4
CH	5605	Dottikon		AG	Bezirk Bremgarten	1903	Dottikon	4065	47.3844	8.2398	4
CH	5607	Hägglingen		AG	Bezirk Bremgarten	1903	Hägglingen	4068	47.3885	8.2532	4
CH	5610	Wohlen AG		AG	Bezirk Bremgarten	1903	Wohlen (AG)	4082	47.3524	8.2788	4
CH	5611	Anglikon		AG	Bezirk Bremgarten	1903	Wohlen (AG)	4082	47.3664	8.2633	4
CH	5612	Villmergen		AG	Bezirk Bremgarten	1903	Villmergen	4080	47.3492	8.2458	4
CH	5613	Hilfikon		AG	Bezirk Bremgarten	1903	Villmergen	4080	47.3313	8.2424	4
CH	5614	Sarmenstorf		AG	Bezirk Bremgarten	1903	Sarmenstorf	4076	47.3102	8.2495	4
CH	5619	Uezwil		AG	Bezirk Bremgarten	1903	Uezwil	4078	47.3169	8.2716	4
CH	5619	Büttikon AG		AG	Bezirk Bremgarten	1903	Büttikon	4064	47.3286	8.2695	4
CH	5620	Bremgarten AG		AG	Bezirk Bremgarten	1903	Bremgarten (AG)	4063	47.3511	8.3421	4
CH	5621	Zufikon		AG	Bezirk Bremgarten	1903	Zufikon	4083	47.3447	8.3582	4
CH	5626	Hermetschwil-Staffeln		AG	Bezirk Bremgarten	1903	Bremgarten (AG)	4063	47.3303	8.3413	4
CH	8905	Arni AG		AG	Bezirk Bremgarten	1903	Arni (AG)	4061	47.3182	8.4247	4
CH	8905	Islisberg		AG	Bezirk Bremgarten	1903	Islisberg	4084	47.322	8.4414	4
CH	8916	Jonen		AG	Bezirk Bremgarten	1903	Jonen	4071	47.2974	8.3934	4
CH	8917	Oberlunkhofen		AG	Bezirk Bremgarten	1903	Oberlunkhofen	4073	47.3115	8.3914	4
CH	8918	Unterlunkhofen		AG	Bezirk Bremgarten	1903	Unterlunkhofen	4079	47.3212	8.381	4
CH	8964	Rudolfstetten		AG	Bezirk Bremgarten	1903	Rudolfstetten-Friedlisberg	4075	47.371	8.3808	4
CH	8965	Berikon		AG	Bezirk Bremgarten	1903	Berikon	4062	47.3514	8.3721	4
CH	8966	Oberwil-Lieli		AG	Bezirk Bremgarten	1903	Oberwil-Lieli	4074	47.3338	8.3812	4
CH	8967	Widen		AG	Bezirk Bremgarten	1903	Widen	4081	47.3692	8.3635	4
CH	5076	Bözen		AG	Bezirk Brugg	1904	Bözen	4094	47.4778	8.1646	4
CH	5077	Elfingen		AG	Bezirk Brugg	1904	Elfingen	4097	47.5085	8.0995	4
CH	5078	Effingen		AG	Bezirk Brugg	1904	Effingen	4096	47.4887	8.1029	4
CH	5105	Auenstein		AG	Bezirk Brugg	1904	Auenstein	4091	47.4156	8.1345	4
CH	5106	Veltheim AG		AG	Bezirk Brugg	1904	Veltheim (AG)	4120	47.438	8.1472	4
CH	5107	Schinznach Dorf		AG	Bezirk Brugg	1904	Schinznach	4125	47.4465	8.1409	4
CH	5108	Oberflachs		AG	Bezirk Brugg	1904	Schinznach	4125	47.4402	8.1252	4
CH	5112	Thalheim AG		AG	Bezirk Brugg	1904	Thalheim (AG)	4117	47.4353	8.1003	4
CH	5116	Schinznach Bad		AG	Bezirk Brugg	1904	Schinznach-Bad	4114	47.4499	8.1683	4
CH	5200	Brugg AG		AG	Bezirk Brugg	1904	Brugg	4095	47.481	8.2087	4
CH	5210	Windisch		AG	Bezirk Brugg	1904	Windisch	4123	47.479	8.2184	4
CH	5212	Hausen AG		AG	Bezirk Brugg	1904	Hausen (AG)	4100	47.464	8.2099	4
CH	5213	Villnachern		AG	Bezirk Brugg	1904	Villnachern	4122	47.471	8.1598	4
CH	5222	Umiken		AG	Bezirk Brugg	1904	Brugg	4095	47.4829	8.1875	4
CH	5223	Riniken		AG	Bezirk Brugg	1904	Riniken	4111	47.494	8.1867	4
CH	5225	Bözberg		AG	Bezirk Brugg	1904	Bözberg	4124	47.4955	8.1514	4
CH	5233	Stilli		AG	Bezirk Brugg	1904	Villigen	4121	47.5172	8.2316	4
CH	5234	Villigen		AG	Bezirk Brugg	1904	Villigen	4121	47.5268	8.2149	4
CH	5235	Rüfenach AG		AG	Bezirk Brugg	1904	Rüfenach	4112	47.5071	8.209	4
CH	5236	Remigen		AG	Bezirk Brugg	1904	Remigen	4110	47.5186	8.185	4
CH	5237	Mönthal		AG	Bezirk Brugg	1904	Mönthal	4106	47.517	8.1404	4
CH	5242	Birr		AG	Bezirk Brugg	1904	Birr	4092	47.4359	8.208	4
CH	5242	Lupfig		AG	Bezirk Brugg	1904	Lupfig	4104	47.4407	8.2038	4
CH	5243	Mülligen		AG	Bezirk Brugg	1904	Mülligen	4107	47.4558	8.2392	4
CH	5244	Birrhard		AG	Bezirk Brugg	1904	Birrhard	4093	47.4328	8.245	4
CH	5245	Habsburg		AG	Bezirk Brugg	1904	Habsburg	4099	47.4623	8.185	4
CH	5246	Scherz		AG	Bezirk Brugg	1904	Scherz	4113	47.4469	8.1842	4
CH	5318	Mandach		AG	Bezirk Brugg	1904	Mandach	4105	47.5478	8.189	4
CH	5040	Schöftland		AG	Bezirk Kulm	1905	Schöftland	4144	47.3057	8.0514	4
CH	5043	Holziken		AG	Bezirk Kulm	1905	Holziken	4136	47.3195	8.0343	4
CH	5044	Schlossrued		AG	Bezirk Kulm	1905	Schlossrued	4142	47.2912	8.0884	4
CH	5046	Walde AG		AG	Bezirk Kulm	1905	Schmiedrued	4143	47.2626	8.1118	4
CH	5046	Schmiedrued		AG	Bezirk Kulm	1905	Schmiedrued	4143	47.2626	8.1118	4
CH	5708	Birrwil		AG	Bezirk Kulm	1905	Birrwil	4132	47.2886	8.2	4
CH	5712	Beinwil am See		AG	Bezirk Kulm	1905	Beinwil am See	4131	47.2606	8.2051	4
CH	5723	Teufenthal AG		AG	Bezirk Kulm	1905	Teufenthal (AG)	4145	47.3286	8.1207	4
CH	5724	Dürrenäsch		AG	Bezirk Kulm	1905	Dürrenäsch	4134	47.3181	8.1585	4
CH	5725	Leutwil		AG	Bezirk Kulm	1905	Leutwil	4138	47.3083	8.1741	4
CH	5726	Unterkulm		AG	Bezirk Kulm	1905	Unterkulm	4146	47.31	8.1137	4
CH	5727	Oberkulm		AG	Bezirk Kulm	1905	Oberkulm	4140	47.3078	8.1442	4
CH	5728	Gontenschwil		AG	Bezirk Kulm	1905	Gontenschwil	4135	47.2717	8.144	4
CH	5732	Zetzwil		AG	Bezirk Kulm	1905	Zetzwil	4147	47.2882	8.1509	4
CH	5733	Leimbach AG		AG	Bezirk Kulm	1905	Leimbach (AG)	4137	47.2749	8.1701	4
CH	5734	Reinach AG		AG	Bezirk Kulm	1905	Reinach (AG)	4141	47.2573	8.1809	4
CH	5736	Burg AG		AG	Bezirk Kulm	1905	Burg (AG)	4133	47.2339	8.178	4
CH	5737	Menziken		AG	Bezirk Kulm	1905	Menziken	4139	47.2425	8.1905	4
CH	4333	Münchwilen AG		AG	Bezirk Laufenburg	1906	Münchwilen (AG)	4172	47.5357	7.9641	4
CH	4334	Sisseln AG		AG	Bezirk Laufenburg	1906	Sisseln	4177	47.5531	7.9917	4
CH	5027	Herznach		AG	Bezirk Laufenburg	1906	Herznach	4166	47.4715	8.0475	4
CH	5028	Ueken		AG	Bezirk Laufenburg	1906	Ueken	4179	47.4845	8.0444	4
CH	5062	Oberhof		AG	Bezirk Laufenburg	1906	Oberhof	4173	47.4487	8.0027	4
CH	5063	Wölflinswil		AG	Bezirk Laufenburg	1906	Wölflinswil	4182	47.4607	7.9984	4
CH	5064	Wittnau		AG	Bezirk Laufenburg	1906	Wittnau	4181	47.4814	7.9758	4
CH	5070	Frick		AG	Bezirk Laufenburg	1906	Frick	4163	47.5117	8.0247	4
CH	5072	Oeschgen		AG	Bezirk Laufenburg	1906	Oeschgen	4175	47.5231	8.019	4
CH	5073	Gipf-Oberfrick		AG	Bezirk Laufenburg	1906	Gipf-Oberfrick	4165	47.4988	8.005	4
CH	5074	Eiken		AG	Bezirk Laufenburg	1906	Eiken	4161	47.5339	7.9888	4
CH	5075	Hornussen		AG	Bezirk Laufenburg	1906	Hornussen	4167	47.5003	8.0613	4
CH	5079	Zeihen		AG	Bezirk Laufenburg	1906	Zeihen	4183	47.4754	8.0831	4
CH	5080	Laufenburg		AG	Bezirk Laufenburg	1906	Laufenburg	4170	47.5598	8.0622	4
CH	5082	Kaisten		AG	Bezirk Laufenburg	1906	Kaisten	4169	47.5416	8.0434	4
CH	5083	Ittenthal		AG	Bezirk Laufenburg	1906	Kaisten	4169	47.5183	8.0596	4
CH	5084	Rheinsulz		AG	Bezirk Laufenburg	1906	Laufenburg	4170	47.5556	8.0899	4
CH	5085	Sulz AG		AG	Bezirk Laufenburg	1906	Laufenburg	4170	47.536	8.0963	4
CH	5272	Gansingen		AG	Bezirk Laufenburg	1906	Gansingen	4164	47.5429	8.1352	4
CH	5273	Oberhofen AG		AG	Bezirk Laufenburg	1906	Mettauertal	4184	47.5538	8.1332	4
CH	5274	Mettau		AG	Bezirk Laufenburg	1906	Mettauertal	4184	47.5636	8.1293	4
CH	5275	Etzgen		AG	Bezirk Laufenburg	1906	Mettauertal	4184	47.5713	8.1106	4
CH	5276	Wil AG		AG	Bezirk Laufenburg	1906	Mettauertal	4184	47.5606	8.1525	4
CH	5277	Hottwil		AG	Bezirk Laufenburg	1906	Mettauertal	4184	47.5484	8.1617	4
CH	5326	Schwaderloch		AG	Bezirk Laufenburg	1906	Schwaderloch	4176	47.5854	8.1446	4
CH	5102	Rupperswil		AG	Bezirk Lenzburg	1907	Rupperswil	4206	47.4013	8.1288	4
CH	5103	Möriken AG		AG	Bezirk Lenzburg	1907	Möriken-Wildegg	4203	47.4156	8.1845	4
CH	5103	Wildegg		AG	Bezirk Lenzburg	1907	Möriken-Wildegg	4203	47.4147	8.1636	4
CH	5113	Holderbank AG		AG	Bezirk Lenzburg	1907	Holderbank (AG)	4199	47.4309	8.1707	4
CH	5502	Hunzenschwil		AG	Bezirk Lenzburg	1907	Hunzenschwil	4200	47.3842	8.1229	4
CH	5503	Schafisheim		AG	Bezirk Lenzburg	1907	Schafisheim	4207	47.3753	8.1408	4
CH	5504	Othmarsingen		AG	Bezirk Lenzburg	1907	Othmarsingen	4205	47.4015	8.2185	4
CH	5505	Brunegg		AG	Bezirk Lenzburg	1907	Brunegg	4193	47.4212	8.2158	4
CH	5600	Ammerswil AG		AG	Bezirk Lenzburg	1907	Ammerswil	4191	47.3682	8.2074	4
CH	5600	Lenzburg		AG	Bezirk Lenzburg	1907	Lenzburg	4201	47.3885	8.175	4
CH	5603	Staufen		AG	Bezirk Lenzburg	1907	Staufen	4210	47.3837	8.1661	4
CH	5604	Hendschiken		AG	Bezirk Lenzburg	1907	Hendschiken	4198	47.3865	8.2178	4
CH	5606	Dintikon		AG	Bezirk Lenzburg	1907	Dintikon	4194	47.3652	8.2302	4
CH	5615	Fahrwangen		AG	Bezirk Lenzburg	1907	Fahrwangen	4196	47.2948	8.2421	4
CH	5616	Meisterschwanden		AG	Bezirk Lenzburg	1907	Meisterschwanden	4202	47.2949	8.2287	4
CH	5617	Tennwil		AG	Bezirk Lenzburg	1907	Meisterschwanden	4202	47.3081	8.2227	4
CH	5702	Niederlenz		AG	Bezirk Lenzburg	1907	Niederlenz	4204	47.4008	8.1764	4
CH	5703	Seon		AG	Bezirk Lenzburg	1907	Seon	4209	47.3449	8.1561	4
CH	5704	Egliswil		AG	Bezirk Lenzburg	1907	Egliswil	4195	47.3495	8.188	4
CH	5705	Hallwil		AG	Bezirk Lenzburg	1907	Hallwil	4197	47.3265	8.1779	4
CH	5706	Boniswil		AG	Bezirk Lenzburg	1907	Boniswil	4192	47.3173	8.1896	4
CH	5707	Seengen		AG	Bezirk Lenzburg	1907	Seengen	4208	47.3285	8.2051	4
CH	5618	Bettwil		AG	Bezirk Muri	1908	Bettwil	4227	47.2906	8.2679	4
CH	5622	Waltenschwil		AG	Bezirk Muri	1908	Waltenschwil	4240	47.3349	8.3034	4
CH	5623	Boswil		AG	Bezirk Muri	1908	Boswil	4228	47.3038	8.3088	4
CH	5624	Waldhäusern AG		AG	Bezirk Muri	1908	Bünzen	4229	47.3283	8.3162	4
CH	5624	Bünzen		AG	Bezirk Muri	1908	Bünzen	4229	47.3098	8.3238	4
CH	5625	Kallern		AG	Bezirk Muri	1908	Kallern	4233	47.3016	8.2813	4
CH	5627	Besenbüren		AG	Bezirk Muri	1908	Besenbüren	4226	47.3144	8.3459	4
CH	5628	Aristau		AG	Bezirk Muri	1908	Aristau	4222	47.2869	8.3636	4
CH	5630	Muri AG		AG	Bezirk Muri	1908	Muri (AG)	4236	47.2743	8.3385	4
CH	5632	Buttwil		AG	Bezirk Muri	1908	Buttwil	4230	47.2683	8.3106	4
CH	5634	Merenschwand		AG	Bezirk Muri	1908	Merenschwand	4234	47.2587	8.3753	4
CH	5636	Benzenschwil		AG	Bezirk Muri	1908	Merenschwand	4234	47.248	8.3651	4
CH	5637	Geltwil		AG	Bezirk Muri	1908	Geltwil	4232	47.249	8.326	4
CH	5637	Beinwil (Freiamt)		AG	Bezirk Muri	1908	Beinwil (Freiamt)	4224	47.2296	8.3392	4
CH	5642	Mühlau		AG	Bezirk Muri	1908	Mühlau	4235	47.2304	8.3896	4
CH	5643	Meienberg		AG	Bezirk Muri	1908	Sins	4239	47.1978	8.3762	4
CH	5643	Alikon		AG	Bezirk Muri	1908	Sins	4239	47.2005	8.3604	4
CH	5643	Sins		AG	Bezirk Muri	1908	Sins	4239	47.1922	8.3958	4
CH	5643	Sins		AG	Bezirk Muri	1908	Sins	4239	47.1922	8.3958	4
CH	5644	Auw		AG	Bezirk Muri	1908	Auw	4223	47.2108	8.3658	4
CH	5645	Fenkrieden		AG	Bezirk Muri	1908	Sins	4239	47.1609	8.3702	4
CH	5645	Aettenschwil		AG	Bezirk Muri	1908	Sins	4239	47.1836	8.3718	4
CH	5646	Abtwil AG		AG	Bezirk Muri	1908	Abtwil	4221	47.1733	8.3577	4
CH	5647	Oberrüti		AG	Bezirk Muri	1908	Oberrüti	4237	47.1667	8.3944	4
CH	6042	Dietwil		AG	Bezirk Muri	1908	Dietwil	4231	47.1466	8.3936	4
CH	8919	Rottenschwil		AG	Bezirk Muri	1908	Rottenschwil	4238	47.3137	8.3614	4
CH	4303	Kaiseraugst		AG	Bezirk Rheinfelden	1909	Kaiseraugst	4252	47.5397	7.726	4
CH	4305	Olsberg		AG	Bezirk Rheinfelden	1909	Olsberg	4257	47.5233	7.7837	4
CH	4310	Rheinfelden		AG	Bezirk Rheinfelden	1909	Rheinfelden	4258	47.5544	7.794	4
CH	4312	Magden		AG	Bezirk Rheinfelden	1909	Magden	4253	47.5287	7.8113	4
CH	4313	Möhlin		AG	Bezirk Rheinfelden	1909	Möhlin	4254	47.5592	7.8433	4
CH	4314	Zeiningen		AG	Bezirk Rheinfelden	1909	Zeiningen	4263	47.5414	7.8718	4
CH	4315	Zuzgen		AG	Bezirk Rheinfelden	1909	Zuzgen	4264	47.5251	7.8999	4
CH	4316	Hellikon		AG	Bezirk Rheinfelden	1909	Hellikon	4251	47.5094	7.9242	4
CH	4317	Wegenstetten		AG	Bezirk Rheinfelden	1909	Wegenstetten	4262	47.4979	7.9316	4
CH	4322	Mumpf		AG	Bezirk Rheinfelden	1909	Mumpf	4255	47.5456	7.9212	4
CH	4323	Wallbach		AG	Bezirk Rheinfelden	1909	Wallbach	4261	47.5598	7.9029	4
CH	4324	Obermumpf		AG	Bezirk Rheinfelden	1909	Obermumpf	4256	47.5294	7.9376	4
CH	4325	Schupfart		AG	Bezirk Rheinfelden	1909	Schupfart	4259	47.5137	7.9658	4
CH	4332	Stein AG		AG	Bezirk Rheinfelden	1909	Stein (AG)	4260	47.544	7.9526	4
CH	4663	Aarburg		AG	Bezirk Zofingen	1910	Aarburg	4271	47.3207	7.8999	4
CH	4665	Oftringen		AG	Bezirk Zofingen	1910	Oftringen	4280	47.3138	7.9253	4
CH	4800	Zofingen		AG	Bezirk Zofingen	1910	Zofingen	4289	47.2878	7.9459	4
CH	4802	Strengelbach		AG	Bezirk Zofingen	1910	Strengelbach	4285	47.2792	7.929	4
CH	4803	Vordemwald		AG	Bezirk Zofingen	1910	Vordemwald	4287	47.2759	7.9011	4
CH	4805	Brittnau		AG	Bezirk Zofingen	1910	Brittnau	4274	47.2595	7.9469	4
CH	4812	Mühlethal		AG	Bezirk Zofingen	1910	Zofingen	4289	47.3028	7.9792	4
CH	4813	Uerkheim		AG	Bezirk Zofingen	1910	Uerkheim	4286	47.3029	8.0237	4
CH	4814	Bottenwil		AG	Bezirk Zofingen	1910	Bottenwil	4273	47.2854	8.0046	4
CH	4852	Rothrist		AG	Bezirk Zofingen	1910	Rothrist	4282	47.3051	7.892	4
CH	4853	Murgenthal		AG	Bezirk Zofingen	1910	Murgenthal	4279	47.2677	7.8358	4
CH	4853	Riken AG		AG	Bezirk Zofingen	1910	Murgenthal	4279	47.278	7.8508	4
CH	4853	Murgenthal		AG	Bezirk Zofingen	1910	Murgenthal	4279	47.2677	7.8358	4
CH	4856	Glashütten		AG	Bezirk Zofingen	1910	Murgenthal	4279	47.2588	7.8446	4
CH	5053	Staffelbach		AG	Bezirk Zofingen	1910	Staffelbach	4284	47.2839	8.0421	4
CH	5053	Wittwil		AG	Bezirk Zofingen	1910	Staffelbach	4284	47.2919	8.0364	4
CH	5054	Moosleerau		AG	Bezirk Zofingen	1910	Moosleerau	4277	47.269	8.0641	4
CH	5054	Kirchleerau		AG	Bezirk Zofingen	1910	Kirchleerau	4275	47.2758	8.0658	4
CH	5056	Attelwil		AG	Bezirk Zofingen	1910	Attelwil	4272	47.2634	8.0397	4
CH	5057	Reitnau		AG	Bezirk Zofingen	1910	Reitnau	4281	47.2522	8.0422	4
CH	5058	Wiliberg		AG	Bezirk Zofingen	1910	Wiliberg	4288	47.2687	8.0214	4
CH	5742	Kölliken		AG	Bezirk Zofingen	1910	Kölliken	4276	47.3388	8.0264	4
CH	5745	Safenwil		AG	Bezirk Zofingen	1910	Safenwil	4283	47.3214	7.9812	4
CH	5304	Endingen		AG	Bezirk Zurzach	1911	Endingen	4305	47.5389	8.2903	4
CH	5305	Unterendingen		AG	Bezirk Zurzach	1911	Endingen	4305	47.5486	8.2917	4
CH	5306	Tegerfelden		AG	Bezirk Zurzach	1911	Tegerfelden	4320	47.5581	8.2891	4
CH	5312	Döttingen		AG	Bezirk Zurzach	1911	Döttingen	4304	47.5709	8.2585	4
CH	5313	Klingnau		AG	Bezirk Zurzach	1911	Klingnau	4309	47.5836	8.2488	4
CH	5314	Kleindöttingen		AG	Bezirk Zurzach	1911	Böttstein	4303	47.5709	8.2465	4
CH	5315	Böttstein		AG	Bezirk Zurzach	1911	Böttstein	4303	47.5554	8.2226	4
CH	5316	Leuggern		AG	Bezirk Zurzach	1911	Leuggern	4313	47.5819	8.2195	4
CH	5317	Hettenschwil		AG	Bezirk Zurzach	1911	Leuggern	4313	47.5786	8.2003	4
CH	5322	Koblenz		AG	Bezirk Zurzach	1911	Koblenz	4310	47.6097	8.2375	4
CH	5323	Rietheim		AG	Bezirk Zurzach	1911	Rietheim	4316	47.6	8.2833	4
CH	5324	Full-Reuenthal		AG	Bezirk Zurzach	1911	Full-Reuenthal	4307	47.6087	8.2027	4
CH	5325	Leibstadt		AG	Bezirk Zurzach	1911	Leibstadt	4311	47.5879	8.1761	4
CH	5330	Bad Zurzach		AG	Bezirk Zurzach	1911	Bad Zurzach	4323	47.5876	8.2936	4
CH	5332	Rekingen AG		AG	Bezirk Zurzach	1911	Rekingen (AG)	4315	47.5719	8.3178	4
CH	5333	Baldingen		AG	Bezirk Zurzach	1911	Baldingen	4301	47.5556	8.3167	4
CH	5334	Böbikon		AG	Bezirk Zurzach	1911	Böbikon	4302	47.5556	8.3347	4
CH	5425	Schneisingen		AG	Bezirk Zurzach	1911	Schneisingen	4318	47.5194	8.3667	4
CH	5426	Lengnau AG		AG	Bezirk Zurzach	1911	Lengnau (AG)	4312	47.5222	8.3306	4
CH	5462	Siglistorf		AG	Bezirk Zurzach	1911	Siglistorf	4319	47.5453	8.3806	4
CH	5463	Wislikofen		AG	Bezirk Zurzach	1911	Wislikofen	4322	47.5583	8.3639	4
CH	5464	Rümikon AG		AG	Bezirk Zurzach	1911	Rümikon	4317	47.5656	8.3754	4
CH	5465	Mellikon		AG	Bezirk Zurzach	1911	Mellikon	4314	47.5694	8.3542	4
CH	5466	Kaiserstuhl AG		AG	Bezirk Zurzach	1911	Kaiserstuhl	4308	47.5684	8.418	4
CH	5467	Fisibach		AG	Bezirk Zurzach	1911	Fisibach	4306	47.5639	8.4097	4
CH	9050	Appenzell Steinegg		AI	Appenzell Inner Rhodes	1600	Rüte	3103	47.322	9.4315	4
CH	9050	Appenzell Eggerstanden		AI	Appenzell Inner Rhodes	1600	Rüte	3103	47.3324	9.4686	4
CH	9050	Appenzell Meistersrüte		AI	Appenzell Inner Rhodes	1600	Appenzell	3101	47.3446	9.4324	4
CH	9050	Appenzell		AI	Appenzell Inner Rhodes	1600	Appenzell	3101	47.331	9.41	4
CH	9050	Appenzell Enggenhütten		AI	Appenzell Inner Rhodes	1600	Schlatt-Haslen	3104	47.3531	9.3623	4
CH	9050	Appenzell Schlatt		AI	Appenzell Inner Rhodes	1600	Schlatt-Haslen	3104	47.3531	9.3623	4
CH	9054	Haslen AI		AI	Appenzell Inner Rhodes	1600	Schlatt-Haslen	3104	47.3693	9.3675	4
CH	9057	Wasserauen		AI	Appenzell Inner Rhodes	1600	Schwende	3105	47.2834	9.4258	4
CH	9057	Weissbad		AI	Appenzell Inner Rhodes	1600	Rüte	3103	47.3089	9.4347	4
CH	9057	Schwende		AI	Appenzell Inner Rhodes	1600	Schwende	3105	47.303	9.4367	4
CH	9058	Brülisau		AI	Appenzell Inner Rhodes	1600	Rüte	3103	47.2986	9.457	4
CH	9108	Gonten		AI	Appenzell Inner Rhodes	1600	Gonten	3102	47.3272	9.347	4
CH	9108	Jakobsbad		AI	Appenzell Inner Rhodes	1600	Gonten	3102	47.3196	9.3263	4
CH	9108	Gontenbad		AI	Appenzell Inner Rhodes	1600	Gonten	3102	47.3331	9.3737	4
CH	9413	Oberegg		AI	Appenzell Inner Rhodes	1600	Oberegg	3111	47.4253	9.5513	4
CH	9413	Oberegg		AI	Appenzell Inner Rhodes	1600	Oberegg	3111	47.4253	9.5513	4
CH	9442	Büriswilen		AI	Appenzell Inner Rhodes	1600	Oberegg	3111	47.4349	9.6058	4
CH	9063	Stein AR		AR	Bezirk Hinterland	1501	Stein (AR)	3005	47.3713	9.3435	4
CH	9064	Hundwil		AR	Bezirk Hinterland	1501	Hundwil	3002	47.3646	9.3185	4
CH	9100	Herisau		AR	Bezirk Hinterland	1501	Herisau	3001	47.3861	9.2792	4
CH	9103	Schwellbrunn		AR	Bezirk Hinterland	1501	Schwellbrunn	3004	47.3525	9.2489	4
CH	9104	Waldstatt		AR	Bezirk Hinterland	1501	Waldstatt	3007	47.3563	9.2834	4
CH	9105	Schönengrund		AR	Bezirk Hinterland	1501	Schönengrund	3003	47.3259	9.2269	4
CH	9107	Urnäsch		AR	Bezirk Hinterland	1501	Urnäsch	3006	47.3167	9.2795	4
CH	9112	Schachen b. Herisau		AR	Bezirk Hinterland	1501	Herisau	3001	47.3865	9.2445	4
CH	9037	Speicherschwendi		AR	Bezirk Mittelland	1502	Speicher	3023	47.4265	9.4378	4
CH	9042	Speicher		AR	Bezirk Mittelland	1502	Speicher	3023	47.4109	9.4433	4
CH	9043	Trogen		AR	Bezirk Mittelland	1502	Trogen	3025	47.4078	9.465	4
CH	9052	Niederteufen		AR	Bezirk Mittelland	1502	Teufen (AR)	3024	47.394	9.3667	4
CH	9053	Teufen AR		AR	Bezirk Mittelland	1502	Teufen (AR)	3024	47.3908	9.3864	4
CH	9055	Bühler		AR	Bezirk Mittelland	1502	Bühler	3021	47.3735	9.4251	4
CH	9056	Gais		AR	Bezirk Mittelland	1502	Gais	3022	47.3615	9.4536	4
CH	9062	Lustmühle		AR	Bezirk Mittelland	1502	Teufen (AR)	3024	47.3991	9.3585	4
CH	9035	Grub AR		AR	Bezirk Vorderland	1503	Grub (AR)	3031	47.4477	9.5097	4
CH	9038	Rehetobel		AR	Bezirk Vorderland	1503	Rehetobel	3034	47.4261	9.483	4
CH	9044	Wald AR		AR	Bezirk Vorderland	1503	Wald (AR)	3036	47.4156	9.491	4
CH	9405	Wienacht-Tobel		AR	Bezirk Vorderland	1503	Lutzenberg	3033	47.4648	9.5334	4
CH	9410	Heiden		AR	Bezirk Vorderland	1503	Heiden	3032	47.4425	9.5329	4
CH	9411	Reute AR		AR	Bezirk Vorderland	1503	Reute (AR)	3035	47.4201	9.5731	4
CH	9411	Schachen b. Reute		AR	Bezirk Vorderland	1503	Reute (AR)	3035	47.4268	9.5618	4
CH	9426	Lutzenberg		AR	Bezirk Vorderland	1503	Lutzenberg	3033	47.4613	9.5761	4
CH	9427	Wolfhalden		AR	Bezirk Vorderland	1503	Wolfhalden	3038	47.4527	9.5481	4
CH	9428	Walzenhausen		AR	Bezirk Vorderland	1503	Walzenhausen	3037	47.4487	9.605	4
CH	2333	La Ferrière		BE	Jura bernois	241	La Ferrière	435	47.143	6.8922	4
CH	2345	Le Cerneux-Veusil		BE	Jura bernois	241	Saint-Imier	443	47.1794	6.9669	4
CH	2515	Prêles		BE	Jura bernois	241	Plateau de Diesse	726	47.0993	7.1302	4
CH	2516	Lamboing		BE	Jura bernois	241	Plateau de Diesse	726	47.1168	7.1348	4
CH	2517	Diesse		BE	Jura bernois	241	Plateau de Diesse	726	47.1134	7.1169	4
CH	2518	Nods		BE	Jura bernois	241	Nods	724	47.1149	7.0801	4
CH	2520	La Neuveville		BE	Jura bernois	241	La Neuveville	723	47.0659	7.0972	4
CH	2534	Les Prés-d'Orvin		BE	Jura bernois	241	Orvin	438	47.157	7.176	4
CH	2534	Orvin		BE	Jura bernois	241	Orvin	438	47.1607	7.2137	4
CH	2535	Frinvillier		BE	Jura bernois	241	Sauge	449	47.1691	7.2549	4
CH	2536	Plagne		BE	Jura bernois	241	Sauge	449	47.1883	7.2871	4
CH	2537	Vauffelin		BE	Jura bernois	241	Sauge	449	47.1873	7.3001	4
CH	2538	Romont BE		BE	Jura bernois	241	Romont (BE)	442	47.1886	7.3406	4
CH	2603	Péry		BE	Jura bernois	241	Péry-La Heutte	450	47.194	7.2491	4
CH	2604	La Heutte		BE	Jura bernois	241	Péry-La Heutte	450	47.1907	7.2261	4
CH	2605	Sonceboz-Sombeval		BE	Jura bernois	241	Sonceboz-Sombeval	444	47.1915	7.1785	4
CH	2606	Corgémont		BE	Jura bernois	241	Corgémont	431	47.1946	7.1452	4
CH	2607	Cortébert		BE	Jura bernois	241	Cortébert	433	47.1883	7.1089	4
CH	2608	Courtelary		BE	Jura bernois	241	Courtelary	434	47.1782	7.0724	4
CH	2608	Montagne-de-Courtelary		BE	Jura bernois	241	Cortébert	433	47.1757	7.1111	3
CH	2610	Les Pontins		BE	Jura bernois	241	Saint-Imier	443	47.1312	6.9989	4
CH	2610	Mont-Soleil		BE	Jura bernois	241	Saint-Imier	443	47.1597	6.9868	4
CH	2610	Mont-Crosin		BE	Jura bernois	241	Cormoret	432	47.1835	7.0343	4
CH	2610	St-Imier		BE	Jura bernois	241	Saint-Imier	443	47.1582	7.0066	3
CH	2612	Cormoret		BE	Jura bernois	241	Cormoret	432	47.1708	7.0542	4
CH	2613	Villeret		BE	Jura bernois	241	Villeret	448	47.1584	7.0189	4
CH	2615	Montagne-de-Sonvilier		BE	Jura bernois	241	Sonvilier	445	47.1388	6.964	3
CH	2615	Sonvilier		BE	Jura bernois	241	Sonvilier	445	47.1388	6.964	4
CH	2616	Renan BE		BE	Jura bernois	241	Renan (BE)	441	47.1269	6.9283	4
CH	2710	Tavannes		BE	Jura bernois	241	Tavannes	713	47.2208	7.1976	4
CH	2712	Le Fuet		BE	Jura bernois	241	Saicourt	706	47.2448	7.184	4
CH	2713	Bellelay		BE	Jura bernois	241	Saicourt	706	47.2633	7.1666	4
CH	2715	Monible		BE	Jura bernois	241	Petit-Val	716	47.277	7.2033	4
CH	2715	Châtelat		BE	Jura bernois	241	Petit-Val	716	47.2628	7.1885	4
CH	2716	Sornetan		BE	Jura bernois	241	Petit-Val	716	47.2746	7.2169	4
CH	2717	Rebévelier		BE	Jura bernois	241	Rebévelier	715	47.2914	7.1923	4
CH	2717	Fornet-Dessous		BE	Jura bernois	241	Petit-Val	716	47.2914	7.1923	3
CH	2720	La Tanne		BE	Jura bernois	241	Tavannes	713	47.2221	7.1533	4
CH	2720	Tramelan		BE	Jura bernois	241	Tramelan	446	47.2239	7.0995	4
CH	2722	Les Reussilles		BE	Jura bernois	241	Tramelan	446	47.2259	7.0846	4
CH	2723	Mont-Tramelan		BE	Jura bernois	241	Mont-Tramelan	437	47.21	7.0648	1
CH	2732	Saules BE		BE	Jura bernois	241	Saules (BE)	707	47.2457	7.2218	4
CH	2732	Reconvilier		BE	Jura bernois	241	Reconvilier	703	47.2343	7.2224	4
CH	2732	Saicourt		BE	Jura bernois	241	Saicourt	706	47.2428	7.2075	4
CH	2732	Loveresse		BE	Jura bernois	241	Loveresse	696	47.2439	7.2388	4
CH	2733	Pontenet		BE	Jura bernois	241	Valbirse	717	47.2433	7.2546	4
CH	2735	Champoz		BE	Jura bernois	241	Champoz	683	47.2558	7.2953	4
CH	2735	Malleray		BE	Jura bernois	241	Valbirse	717	47.2384	7.2729	4
CH	2735	Bévilard		BE	Jura bernois	241	Valbirse	717	47.2371	7.2832	4
CH	2736	Sorvilier		BE	Jura bernois	241	Sorvilier	711	47.2393	7.3037	4
CH	2738	Court		BE	Jura bernois	241	Court	690	47.2396	7.3365	4
CH	2740	Moutier		BE	Jura bernois	241	Moutier	700	47.2782	7.3695	4
CH	2742	Perrefitte		BE	Jura bernois	241	Perrefitte	701	47.2757	7.3416	4
CH	2743	Eschert		BE	Jura bernois	241	Eschert	692	47.2753	7.4013	4
CH	2744	Belprahon		BE	Jura bernois	241	Belprahon	681	47.2834	7.4058	4
CH	2745	Grandval		BE	Jura bernois	241	Grandval	694	47.2828	7.425	4
CH	2746	Crémines		BE	Jura bernois	241	Crémines	691	47.2833	7.4403	4
CH	2747	Corcelles BE		BE	Jura bernois	241	Corcelles (BE)	687	47.2849	7.4524	4
CH	2747	Seehof		BE	Jura bernois	241	Seehof	709	47.3032	7.5209	4
CH	2748	Souboz		BE	Jura bernois	241	Petit-Val	716	47.2749	7.2445	4
CH	2748	Les Ecorcheresses		BE	Jura bernois	241	Petit-Val	716	47.2773	7.2803	4
CH	2762	Roches BE		BE	Jura bernois	241	Roches (BE)	704	47.302	7.3813	4
CH	2827	Schelten		BE	Jura bernois	241	Schelten	708	47.3343	7.5517	4
CH	2502	Biel/Bienne		BE	Biel/Bienne District	242	Biel/Bienne	371	47.1371	7.2461	4
CH	2503	Biel/Bienne		BE	Biel/Bienne District	242	Biel/Bienne	371	47.1371	7.2461	4
CH	2504	Biel/Bienne		BE	Biel/Bienne District	242	Biel/Bienne	371	47.1371	7.2461	4
CH	2505	Biel/Bienne		BE	Biel/Bienne District	242	Biel/Bienne	371	47.1371	7.2461	4
CH	2512	Tüscherz-Alfermée		BE	Biel/Bienne District	242	Twann-Tüscherz	756	47.1141	7.1942	4
CH	2513	Twann		BE	Biel/Bienne District	242	Twann-Tüscherz	756	47.0942	7.157	4
CH	2514	Ligerz		BE	Biel/Bienne District	242	Ligerz	740	47.0837	7.1348	4
CH	2532	Macolin		BE	Biel/Bienne District	242	Evilard	372	47.139	7.2141	4
CH	2533	Evilard		BE	Biel/Bienne District	242	Evilard	372	47.1505	7.239	4
CH	2542	Pieterlen		BE	Biel/Bienne District	242	Pieterlen	392	47.175	7.3379	4
CH	2543	Lengnau BE		BE	Biel/Bienne District	242	Lengnau (BE)	387	47.1815	7.3681	4
CH	2552	Orpund		BE	Biel/Bienne District	242	Orpund	744	47.1389	7.3078	4
CH	2553	Safnern		BE	Biel/Bienne District	242	Safnern	746	47.15	7.3231	4
CH	2554	Meinisberg		BE	Biel/Bienne District	242	Meinisberg	390	47.1597	7.348	4
CH	2555	Brügg BE		BE	Biel/Bienne District	242	Brügg	733	47.1237	7.2789	4
CH	2556	Scheuren		BE	Biel/Bienne District	242	Scheuren	747	47.1347	7.3209	4
CH	2556	Schwadernau		BE	Biel/Bienne District	242	Schwadernau	748	47.1278	7.3078	4
CH	2558	Aegerten		BE	Biel/Bienne District	242	Aegerten	731	47.1211	7.2916	4
CH	2560	Nidau		BE	Biel/Bienne District	242	Nidau	743	47.1255	7.2403	4
CH	2562	Port		BE	Biel/Bienne District	242	Port	745	47.1141	7.2589	4
CH	2563	Ipsach		BE	Biel/Bienne District	242	Ipsach	739	47.1139	7.2303	4
CH	2564	Bellmund		BE	Biel/Bienne District	242	Bellmund	732	47.1085	7.2461	4
CH	2572	Sutz		BE	Biel/Bienne District	242	Sutz-Lattrigen	750	47.1034	7.2208	4
CH	2572	Mörigen		BE	Biel/Bienne District	242	Mörigen	742	47.0851	7.2141	4
CH	2557	Studen BE		BE	Seeland District	243	Studen (BE)	749	47.113	7.3032	4
CH	2565	Jens		BE	Seeland District	243	Jens	738	47.0963	7.2636	4
CH	2575	Hagneck		BE	Seeland District	243	Hagneck	736	47.057	7.1853	4
CH	2575	Täuffelen		BE	Seeland District	243	Täuffelen	751	47.0652	7.197	4
CH	2575	Gerolfingen		BE	Seeland District	243	Täuffelen	751	47.0771	7.1989	4
CH	2576	Lüscherz		BE	Seeland District	243	Lüscherz	497	47.0446	7.1527	4
CH	2577	Finsterhennen		BE	Seeland District	243	Finsterhennen	493	47.0248	7.1754	4
CH	2577	Siselen BE		BE	Seeland District	243	Siselen	499	47.0324	7.1888	4
CH	3035	Frieswil		BE	Seeland District	243	Seedorf (BE)	312	46.9951	7.2866	4
CH	3036	Detligen		BE	Seeland District	243	Radelfingen	309	47.0031	7.2736	4
CH	3053	Lätti		BE	Seeland District	243	Rapperswil (BE)	310	47.0378	7.4322	4
CH	3054	Schüpfen		BE	Seeland District	243	Schüpfen	311	47.0366	7.3772	4
CH	3225	Müntschemier		BE	Seeland District	243	Müntschemier	498	46.9955	7.1463	4
CH	3226	Treiten		BE	Seeland District	243	Treiten	500	47.0086	7.1603	4
CH	3232	Ins		BE	Seeland District	243	Ins	496	47.0058	7.1061	4
CH	3233	Tschugg		BE	Seeland District	243	Tschugg	501	47.0253	7.081	4
CH	3234	Vinelz		BE	Seeland District	243	Vinelz	502	47.034	7.1161	4
CH	3235	Erlach		BE	Seeland District	243	Erlach	492	47.0422	7.0973	4
CH	3236	Gampelen		BE	Seeland District	243	Gampelen	495	47.012	7.0577	4
CH	3237	Brüttelen		BE	Seeland District	243	Brüttelen	491	47.0227	7.1479	4
CH	3238	Gals		BE	Seeland District	243	Gals	494	47.0284	7.0518	4
CH	3250	Lyss		BE	Seeland District	243	Lyss	306	47.0741	7.3066	4
CH	3251	Wengi b. Büren		BE	Seeland District	243	Wengi	394	47.0862	7.3954	3
CH	3251	Ruppoldsried		BE	Seeland District	243	Rapperswil (BE)	310	47.0891	7.4265	4
CH	3252	Worben		BE	Seeland District	243	Worben	755	47.1028	7.2952	4
CH	3255	Rapperswil BE		BE	Seeland District	243	Rapperswil (BE)	310	47.0632	7.4109	4
CH	3256	Dieterswil		BE	Seeland District	243	Rapperswil (BE)	310	47.0565	7.4259	4
CH	3256	Seewil		BE	Seeland District	243	Rapperswil (BE)	310	47.0495	7.4098	4
CH	3256	Bangerten b. Dieterswil		BE	Seeland District	243	Rapperswil (BE)	310	47.053	7.4178	3
CH	3257	Grossaffoltern		BE	Seeland District	243	Grossaffoltern	303	47.0659	7.3623	4
CH	3257	Ammerzwil BE		BE	Seeland District	243	Grossaffoltern	303	47.0704	7.3418	4
CH	3262	Suberg		BE	Seeland District	243	Grossaffoltern	303	47.061	7.3373	4
CH	3263	Büetigen		BE	Seeland District	243	Büetigen	382	47.106	7.338	4
CH	3264	Diessbach b. Büren		BE	Seeland District	243	Diessbach bei Büren	385	47.1078	7.3612	4
CH	3266	Wiler b. Seedorf		BE	Seeland District	243	Seedorf (BE)	312	47.0499	7.321	4
CH	3267	Seedorf BE		BE	Seeland District	243	Seedorf (BE)	312	47.0345	7.3125	4
CH	3268	Lobsigen		BE	Seeland District	243	Seedorf (BE)	312	47.0282	7.2945	4
CH	3270	Aarberg		BE	Seeland District	243	Aarberg	301	47.0444	7.2758	4
CH	3271	Radelfingen b. Aarberg		BE	Seeland District	243	Radelfingen	309	47.0215	7.2718	4
CH	3272	Walperswil		BE	Seeland District	243	Walperswil	754	47.0602	7.2296	4
CH	3272	Epsach		BE	Seeland District	243	Epsach	735	47.0705	7.2217	4
CH	3273	Kappelen		BE	Seeland District	243	Kappelen	305	47.0602	7.2686	4
CH	3274	Merzligen		BE	Seeland District	243	Merzligen	741	47.0873	7.2538	4
CH	3274	Hermrigen		BE	Seeland District	243	Hermrigen	737	47.0817	7.2416	4
CH	3274	Bühl b. Aarberg		BE	Seeland District	243	Bühl	734	47.0708	7.2454	4
CH	3282	Bargen BE		BE	Seeland District	243	Bargen (BE)	302	47.0375	7.2629	4
CH	3283	Niederried b. Kallnach		BE	Seeland District	243	Kallnach	304	47.0112	7.2501	4
CH	3283	Kallnach		BE	Seeland District	243	Kallnach	304	47.0203	7.2355	4
CH	3292	Busswil BE		BE	Seeland District	243	Lyss	306	47.0997	7.3222	4
CH	3293	Dotzigen		BE	Seeland District	243	Dotzigen	386	47.1217	7.3456	4
CH	3294	Büren an der Aare		BE	Seeland District	243	Büren an der Aare	383	47.1398	7.3722	4
CH	3294	Meienried		BE	Seeland District	243	Meienried	389	47.1387	7.3414	4
CH	3295	Rüti b. Büren		BE	Seeland District	243	Rüti bei Büren	393	47.1513	7.4113	1
CH	3296	Arch		BE	Seeland District	243	Arch	381	47.1653	7.4314	4
CH	3297	Leuzigen		BE	Seeland District	243	Leuzigen	388	47.1746	7.4578	4
CH	3298	Oberwil b. Büren		BE	Seeland District	243	Oberwil bei Büren	391	47.1307	7.4114	1
CH	3360	Herzogenbuchsee		BE	Oberaargau	244	Herzogenbuchsee	979	47.1879	7.7062	4
CH	3362	Niederönz		BE	Oberaargau	244	Niederönz	982	47.1842	7.6906	4
CH	3363	Oberönz		BE	Oberaargau	244	Herzogenbuchsee	979	47.1779	7.6949	4
CH	3365	Grasswil		BE	Oberaargau	244	Seeberg	988	47.1441	7.6701	4
CH	3365	Seeberg		BE	Oberaargau	244	Seeberg	988	47.1559	7.6657	4
CH	3366	Bettenhausen		BE	Oberaargau	244	Bettenhausen	973	47.1715	7.7157	4
CH	3366	Bollodingen		BE	Oberaargau	244	Bettenhausen	973	47.1662	7.7056	4
CH	3367	Ochlenberg		BE	Oberaargau	244	Ochlenberg	985	47.1495	7.736	4
CH	3367	Thörigen		BE	Oberaargau	244	Thörigen	989	47.1731	7.7289	4
CH	3368	Bleienbach		BE	Oberaargau	244	Bleienbach	324	47.1849	7.7563	4
CH	3372	Wanzwil		BE	Oberaargau	244	Heimenhausen	977	47.2003	7.6932	4
CH	3373	Röthenbach Herzogenbuchsee		BE	Oberaargau	244	Heimenhausen	977	47.2064	7.6816	4
CH	3373	Heimenhausen		BE	Oberaargau	244	Heimenhausen	977	47.209	7.6996	4
CH	3374	Wangenried		BE	Oberaargau	244	Wangenried	993	47.2171	7.6556	4
CH	3375	Inkwil		BE	Oberaargau	244	Inkwil	980	47.201	7.6712	4
CH	3376	Graben		BE	Oberaargau	244	Graben	976	47.2153	7.7178	4
CH	3376	Berken		BE	Oberaargau	244	Berken	972	47.2258	7.7059	4
CH	3377	Walliswil b. Wangen		BE	Oberaargau	244	Walliswil bei Wangen	991	47.2288	7.6829	4
CH	3380	Walliswil b. Niederbipp		BE	Oberaargau	244	Walliswil bei Niederbipp	990	47.2362	7.6953	3
CH	3380	Wangen an der Aare		BE	Oberaargau	244	Wangen an der Aare	992	47.232	7.6545	4
CH	3464	Schmidigen-Mühleweg		BE	Oberaargau	244	Walterswil (BE)	959	47.0943	7.7459	4
CH	3475	Hermiswil		BE	Oberaargau	244	Seeberg	988	47.1422	7.683	4
CH	3475	Riedtwil		BE	Oberaargau	244	Seeberg	988	47.1437	7.6982	4
CH	3476	Oschwand		BE	Oberaargau	244	Ochlenberg	985	47.1408	7.7129	4
CH	4536	Attiswil		BE	Oberaargau	244	Attiswil	971	47.2467	7.6135	4
CH	4537	Wiedlisbach		BE	Oberaargau	244	Wiedlisbach	995	47.2519	7.6461	4
CH	4538	Oberbipp		BE	Oberaargau	244	Oberbipp	983	47.2607	7.6636	4
CH	4539	Rumisberg		BE	Oberaargau	244	Rumisberg	987	47.2641	7.6403	4
CH	4539	Farnern		BE	Oberaargau	244	Farnern	975	47.2669	7.6178	4
CH	4704	Niederbipp		BE	Oberaargau	244	Niederbipp	981	47.2661	7.6946	4
CH	4704	Wolfisberg		BE	Oberaargau	244	Wolfisberg	996	47.2748	7.6599	4
CH	4900	Langenthal		BE	Oberaargau	244	Langenthal	329	47.2153	7.7961	4
CH	4911	Schwarzhäusern		BE	Oberaargau	244	Schwarzhäusern	341	47.2517	7.7655	4
CH	4912	Aarwangen		BE	Oberaargau	244	Aarwangen	321	47.2385	7.7685	4
CH	4913	Bannwil		BE	Oberaargau	244	Bannwil	323	47.234	7.731	4
CH	4914	Roggwil BE		BE	Oberaargau	244	Roggwil (BE)	337	47.2412	7.8214	4
CH	4916	Untersteckholz		BE	Oberaargau	244	Langenthal	329	47.2076	7.8445	4
CH	4917	Melchnau		BE	Oberaargau	244	Melchnau	333	47.1821	7.8513	4
CH	4917	Busswil b. Melchnau		BE	Oberaargau	244	Busswil bei Melchnau	325	47.1876	7.8295	3
CH	4919	Reisiswil		BE	Oberaargau	244	Reisiswil	336	47.1651	7.8463	4
CH	4922	Thunstetten		BE	Oberaargau	244	Thunstetten	342	47.2027	7.7575	4
CH	4922	Bützberg		BE	Oberaargau	244	Thunstetten	342	47.2141	7.7431	4
CH	4923	Wynau		BE	Oberaargau	244	Wynau	345	47.2557	7.8163	4
CH	4924	Obersteckholz		BE	Oberaargau	244	Obersteckholz	334	47.1993	7.8171	4
CH	4932	Lotzwil		BE	Oberaargau	244	Lotzwil	331	47.1913	7.791	4
CH	4932	Gutenburg		BE	Oberaargau	244	Madiswil	332	47.1838	7.7948	4
CH	4933	Rütschelen		BE	Oberaargau	244	Rütschelen	340	47.1711	7.7709	4
CH	4934	Madiswil		BE	Oberaargau	244	Madiswil	332	47.1646	7.7986	4
CH	4935	Leimiswil		BE	Oberaargau	244	Madiswil	332	47.1508	7.7634	4
CH	4936	Kleindietwil		BE	Oberaargau	244	Madiswil	332	47.1457	7.7896	4
CH	4937	Ursenbach		BE	Oberaargau	244	Ursenbach	344	47.137	7.7719	4
CH	4938	Rohrbachgraben		BE	Oberaargau	244	Rohrbachgraben	339	47.1193	7.8004	4
CH	4938	Rohrbach		BE	Oberaargau	244	Rohrbach	338	47.1352	7.8133	4
CH	4942	Walterswil BE		BE	Oberaargau	244	Walterswil (BE)	959	47.1122	7.778	4
CH	4943	Oeschenbach		BE	Oberaargau	244	Oeschenbach	335	47.1029	7.7476	4
CH	4944	Auswil		BE	Oberaargau	244	Auswil	322	47.1436	7.8454	4
CH	4950	Huttwil		BE	Oberaargau	244	Huttwil	954	47.115	7.8621	4
CH	4952	Eriswil		BE	Oberaargau	244	Eriswil	953	47.0782	7.8515	4
CH	4953	Schwarzenbach (Huttwil)		BE	Oberaargau	244	Huttwil	954	47.108	7.8303	4
CH	4954	Wyssachen		BE	Oberaargau	244	Wyssachen	960	47.0785	7.8292	4
CH	4955	Gondiswil		BE	Oberaargau	244	Gondiswil	326	47.1468	7.8714	4
CH	3309	Kernenried		BE	Emmental District	245	Kernenried	411	47.0697	7.5468	4
CH	3315	Bätterkinden		BE	Emmental District	245	Bätterkinden	533	47.1336	7.541	4
CH	3315	Kräiligen		BE	Emmental District	245	Bätterkinden	533	47.1504	7.5343	4
CH	3324	Hindelbank		BE	Emmental District	245	Hindelbank	409	47.0427	7.5414	4
CH	3324	Mötschwil		BE	Emmental District	245	Mötschwil	416	47.0411	7.5756	4
CH	3325	Hettiswil b. Hindelbank		BE	Emmental District	245	Krauchthal	414	47.027	7.5382	1
CH	3326	Krauchthal		BE	Emmental District	245	Krauchthal	414	47.0096	7.5664	4
CH	3400	Burgdorf		BE	Emmental District	245	Burgdorf	404	47.059	7.6279	4
CH	3412	Heimiswil		BE	Emmental District	245	Heimiswil	407	47.0675	7.6667	4
CH	3413	Kaltacker		BE	Emmental District	245	Heimiswil	407	47.0778	7.6701	4
CH	3414	Oberburg		BE	Emmental District	245	Oberburg	418	47.0366	7.6275	4
CH	3415	Rüegsauschachen		BE	Emmental District	245	Rüegsau	956	47.0205	7.6644	4
CH	3415	Schafhausen im Emmental		BE	Emmental District	245	Hasle bei Burgdorf	406	47.0174	7.6577	3
CH	3415	Hasle b. Burgdorf		BE	Emmental District	245	Hasle bei Burgdorf	406	47.0144	7.6511	4
CH	3416	Affoltern im Emmental		BE	Emmental District	245	Affoltern im Emmental	951	47.0653	7.7347	4
CH	3417	Rüegsau		BE	Emmental District	245	Rüegsau	956	47.0381	7.691	4
CH	3418	Rüegsbach		BE	Emmental District	245	Rüegsau	956	47.0354	7.6903	4
CH	3419	Biembach im Emmental		BE	Emmental District	245	Hasle bei Burgdorf	406	47.0006	7.6224	4
CH	3421	Rüti b. Lyssach		BE	Emmental District	245	Rüti bei Lyssach	422	47.0544	7.5824	3
CH	3421	Lyssach		BE	Emmental District	245	Lyssach	415	47.0645	7.5823	4
CH	3421	Lyssach		BE	Emmental District	245	Oberburg	418	47.023	7.6065	4
CH	3422	Rüdtligen		BE	Emmental District	245	Rüdtligen-Alchenflüh	420	47.0887	7.5707	4
CH	3422	Kirchberg BE		BE	Emmental District	245	Kirchberg (BE)	412	47.0854	7.5829	4
CH	3422	Alchenflüh		BE	Emmental District	245	Rüdtligen-Alchenflüh	420	47.0847	7.5811	4
CH	3423	Ersigen		BE	Emmental District	245	Ersigen	405	47.0937	7.5951	4
CH	3424	Niederösch		BE	Emmental District	245	Ersigen	405	47.0976	7.6042	4
CH	3424	Oberösch		BE	Emmental District	245	Ersigen	405	47.1096	7.608	4
CH	3425	Koppigen		BE	Emmental District	245	Koppigen	413	47.1338	7.5987	4
CH	3425	Willadingen		BE	Emmental District	245	Willadingen	423	47.1467	7.6111	4
CH	3426	Aefligen		BE	Emmental District	245	Aefligen	401	47.0957	7.5517	4
CH	3427	Utzenstorf		BE	Emmental District	245	Utzenstorf	552	47.1298	7.5584	4
CH	3428	Wiler b. Utzenstorf		BE	Emmental District	245	Wiler bei Utzenstorf	554	47.1506	7.5566	4
CH	3429	Höchstetten		BE	Emmental District	245	Höchstetten	410	47.1438	7.6334	4
CH	3429	Hellsau		BE	Emmental District	245	Hellsau	408	47.1437	7.6483	4
CH	3432	Lützelflüh-Goldbach		BE	Emmental District	245	Lützelflüh	955	47.0076	7.6917	4
CH	3433	Schwanden im Emmental		BE	Emmental District	245	Rüderswil	905	46.988	7.6952	4
CH	3435	Ramsei		BE	Emmental District	245	Lützelflüh	955	46.9983	7.7118	4
CH	3436	Zollbrück		BE	Emmental District	245	Rüderswil	905	46.9745	7.7438	4
CH	3437	Rüderswil		BE	Emmental District	245	Rüderswil	905	46.9837	7.7217	4
CH	3438	Lauperswil		BE	Emmental District	245	Lauperswil	903	46.9656	7.7421	4
CH	3439	Ranflüh		BE	Emmental District	245	Lützelflüh	955	46.9876	7.7402	4
CH	3452	Grünenmatt		BE	Emmental District	245	Lützelflüh	955	47.009	7.7234	4
CH	3453	Heimisbach		BE	Emmental District	245	Trachselwald	958	47.0125	7.7605	4
CH	3454	Sumiswald		BE	Emmental District	245	Sumiswald	957	47.0275	7.7453	4
CH	3455	Grünen		BE	Emmental District	245	Sumiswald	957	47.0266	7.7432	4
CH	3456	Trachselwald		BE	Emmental District	245	Trachselwald	958	47.017	7.7364	4
CH	3457	Wasen im Emmental		BE	Emmental District	245	Sumiswald	957	47.0427	7.7972	4
CH	3462	Weier im Emmental		BE	Emmental District	245	Affoltern im Emmental	951	47.0624	7.7506	4
CH	3463	Häusernmoos im Emmental		BE	Emmental District	245	Affoltern im Emmental	951	47.0807	7.7502	4
CH	3465	Dürrenroth		BE	Emmental District	245	Dürrenroth	952	47.0882	7.7913	4
CH	3472	Rumendingen		BE	Emmental District	245	Rumendingen	421	47.1059	7.6394	4
CH	3472	Wynigen		BE	Emmental District	245	Wynigen	424	47.1059	7.6668	4
CH	3473	Alchenstorf		BE	Emmental District	245	Alchenstorf	402	47.1254	7.6379	4
CH	3474	Rüedisbach		BE	Emmental District	245	Wynigen	424	47.1208	7.7044	4
CH	3534	Signau		BE	Emmental District	245	Signau	907	46.9194	7.7242	4
CH	3535	Schüpbach		BE	Emmental District	245	Signau	907	46.9261	7.74	4
CH	3536	Aeschau		BE	Emmental District	245	Eggiwil	901	46.9095	7.7618	4
CH	3537	Eggiwil		BE	Emmental District	245	Eggiwil	901	46.8757	7.7957	4
CH	3538	Röthenbach im Emmental		BE	Emmental District	245	Röthenbach im Emmental	904	46.8542	7.7425	4
CH	3543	Emmenmatt		BE	Emmental District	245	Lauperswil	903	46.9487	7.7493	4
CH	3550	Langnau im Emmental		BE	Emmental District	245	Langnau im Emmental	902	46.9394	7.7874	4
CH	3551	Oberfrittenbach		BE	Emmental District	245	Langnau im Emmental	902	46.9297	7.7963	4
CH	3552	Bärau		BE	Emmental District	245	Langnau im Emmental	902	46.9301	7.8114	4
CH	3553	Gohl		BE	Emmental District	245	Langnau im Emmental	902	46.9554	7.8062	4
CH	3555	Trubschachen		BE	Emmental District	245	Trubschachen	909	46.9223	7.8452	4
CH	3556	Trub		BE	Emmental District	245	Trub	908	46.9417	7.88	4
CH	3557	Fankhaus (Trub)		BE	Emmental District	245	Trub	908	46.9706	7.9174	4
CH	3618	Süderen		BE	Emmental District	245	Röthenbach im Emmental	904	46.9885	7.7386	4
CH	4564	Zielebach		BE	Emmental District	245	Zielebach	556	47.158	7.5729	4
CH	6197	Schangnau		BE	Emmental District	245	Schangnau	906	46.8278	7.8599	4
CH	1595	Clavaleyres		BE	Bern-Mittelland District	246	Clavaleyres	661	46.8991	7.0928	4
CH	1738	Sangernboden		BE	Bern-Mittelland District	246	Guggisberg	852	46.7133	7.3519	4
CH	1797	Münchenwiler		BE	Bern-Mittelland District	246	Münchenwiler	669	46.9133	7.1256	4
CH	3004	Bern		BE	Bern-Mittelland District	246	Bern	351	46.9481	7.4474	4
CH	3005	Bern		BE	Bern-Mittelland District	246	Bern	351	46.9481	7.4474	4
CH	3006	Bern		BE	Bern-Mittelland District	246	Bern	351	46.9481	7.4474	4
CH	3007	Bern		BE	Bern-Mittelland District	246	Bern	351	46.9481	7.4474	4
CH	3008	Bern		BE	Bern-Mittelland District	246	Bern	351	46.9481	7.4474	4
CH	3010	Bern		BE	Bern-Mittelland District	246	Bern	351	46.9481	7.4474	4
CH	3011	Bern		BE	Bern-Mittelland District	246	Bern	351	46.9481	7.4474	4
CH	3011	Bern		BE	Bern-Mittelland District	246	Bern	351	46.9481	7.4474	4
CH	3012	Bern		BE	Bern-Mittelland District	246	Bern	351	46.9481	7.4474	4
CH	3013	Bern		BE	Bern-Mittelland District	246	Bern	351	46.9481	7.4474	4
CH	3014	Bern		BE	Bern-Mittelland District	246	Bern	351	46.9481	7.4474	4
CH	3015	Bern		BE	Bern-Mittelland District	246	Bern	351	46.9481	7.4474	4
CH	3018	Bern		BE	Bern-Mittelland District	246	Bern	351	46.9481	7.4474	4
CH	3019	Bern		BE	Bern-Mittelland District	246	Bern	351	46.9481	7.4474	4
CH	3020	Bern		BE	Bern-Mittelland District	246	Bern	351	46.9481	7.4474	4
CH	3027	Bern		BE	Bern-Mittelland District	246	Bern	351	46.9481	7.4474	4
CH	3032	Hinterkappelen		BE	Bern-Mittelland District	246	Wohlen bei Bern	360	46.9673	7.3779	4
CH	3033	Wohlen b. Bern		BE	Bern-Mittelland District	246	Wohlen bei Bern	360	46.9877	7.3481	1
CH	3034	Murzelen		BE	Bern-Mittelland District	246	Wohlen bei Bern	360	46.9831	7.3155	4
CH	3037	Herrenschwanden		BE	Bern-Mittelland District	246	Kirchlindach	354	46.9776	7.4175	4
CH	3038	Kirchlindach		BE	Bern-Mittelland District	246	Kirchlindach	354	46.9997	7.4173	4
CH	3042	Ortschwaben		BE	Bern-Mittelland District	246	Meikirch	307	46.9917	7.4018	4
CH	3043	Uettligen		BE	Bern-Mittelland District	246	Wohlen bei Bern	360	46.9873	7.3856	4
CH	3044	Innerberg		BE	Bern-Mittelland District	246	Wohlen bei Bern	360	46.9975	7.3073	4
CH	3045	Meikirch		BE	Bern-Mittelland District	246	Meikirch	307	47.0072	7.3664	4
CH	3046	Wahlendorf		BE	Bern-Mittelland District	246	Meikirch	307	47.0091	7.3388	4
CH	3047	Bremgarten b. Bern		BE	Bern-Mittelland District	246	Bremgarten bei Bern	353	46.978	7.4385	4
CH	3048	Worblaufen		BE	Bern-Mittelland District	246	Ittigen	362	46.9797	7.4581	4
CH	3049	Säriswil		BE	Bern-Mittelland District	246	Wohlen bei Bern	360	46.9918	7.3342	4
CH	3052	Zollikofen		BE	Bern-Mittelland District	246	Zollikofen	361	46.999	7.4581	4
CH	3053	Deisswil b. Münchenbuchsee		BE	Bern-Mittelland District	246	Deisswil bei Münchenbuchsee	535	47.0372	7.4533	3
CH	3053	Münchenbuchsee		BE	Bern-Mittelland District	246	Münchenbuchsee	546	47.0218	7.4504	4
CH	3053	Diemerswil		BE	Bern-Mittelland District	246	Diemerswil	536	47.0191	7.4245	4
CH	3053	Wiggiswil		BE	Bern-Mittelland District	246	Wiggiswil	553	47.0313	7.4709	4
CH	3063	Ittigen		BE	Bern-Mittelland District	246	Ittigen	362	46.9743	7.4828	4
CH	3065	Bolligen		BE	Bern-Mittelland District	246	Bolligen	352	46.9751	7.497	4
CH	3066	Stettlen		BE	Bern-Mittelland District	246	Stettlen	358	46.9583	7.5251	4
CH	3067	Boll		BE	Bern-Mittelland District	246	Vechigen	359	46.9542	7.5486	4
CH	3068	Utzigen		BE	Bern-Mittelland District	246	Vechigen	359	46.9621	7.5657	4
CH	3072	Ostermundigen		BE	Bern-Mittelland District	246	Ostermundigen	363	46.9569	7.4902	4
CH	3073	Gümligen		BE	Bern-Mittelland District	246	Muri bei Bern	356	46.9345	7.5093	4
CH	3074	Muri b. Bern		BE	Bern-Mittelland District	246	Muri bei Bern	356	46.9312	7.4866	4
CH	3075	Rüfenacht BE		BE	Bern-Mittelland District	246	Worb	627	46.9308	7.5323	4
CH	3075	Vielbringen b. Worb		BE	Bern-Mittelland District	246	Worb	627	46.9308	7.5323	3
CH	3076	Worb		BE	Bern-Mittelland District	246	Worb	627	46.9298	7.5631	4
CH	3077	Enggistein		BE	Bern-Mittelland District	246	Worb	627	46.9335	7.5979	4
CH	3078	Richigen		BE	Bern-Mittelland District	246	Worb	627	46.9173	7.5842	4
CH	3082	Schlosswil		BE	Bern-Mittelland District	246	Schlosswil	624	46.9087	7.6117	4
CH	3083	Trimstein		BE	Bern-Mittelland District	246	Münsingen	616	46.9048	7.5835	4
CH	3084	Wabern		BE	Bern-Mittelland District	246	Köniz	355	46.9299	7.4508	4
CH	3086	Englisberg		BE	Bern-Mittelland District	246	Wald (BE)	888	46.8992	7.4693	4
CH	3086	Zimmerwald		BE	Bern-Mittelland District	246	Wald (BE)	888	46.8809	7.4771	4
CH	3087	Niedermuhlern		BE	Bern-Mittelland District	246	Niedermuhlern	877	46.8576	7.4618	4
CH	3088	Oberbütschel		BE	Bern-Mittelland District	246	Rüeggisberg	880	46.8389	7.4641	4
CH	3088	Rüeggisberg		BE	Bern-Mittelland District	246	Rüeggisberg	880	46.8222	7.4389	4
CH	3089	Hinterfultigen		BE	Bern-Mittelland District	246	Rüeggisberg	880	46.8398	7.4009	4
CH	3095	Spiegel b. Bern		BE	Bern-Mittelland District	246	Köniz	355	46.9248	7.4361	4
CH	3096	Oberbalm		BE	Bern-Mittelland District	246	Oberbalm	357	46.8736	7.4028	4
CH	3097	Liebefeld		BE	Bern-Mittelland District	246	Köniz	355	46.9258	7.4145	4
CH	3098	Köniz		BE	Bern-Mittelland District	246	Köniz	355	46.9244	7.4146	4
CH	3098	Schliern b. Köniz		BE	Bern-Mittelland District	246	Köniz	355	46.9244	7.4146	3
CH	3099	Rüti b. Riggisberg		BE	Bern-Mittelland District	246	Riggisberg	879	46.7824	7.4602	1
CH	3110	Münsingen		BE	Bern-Mittelland District	246	Münsingen	616	46.873	7.561	4
CH	3111	Tägertschi		BE	Bern-Mittelland District	246	Münsingen	616	46.8841	7.5657	4
CH	3112	Allmendingen b. Bern		BE	Bern-Mittelland District	246	Allmendingen	630	46.9147	7.5244	4
CH	3113	Rubigen		BE	Bern-Mittelland District	246	Rubigen	623	46.8987	7.5446	4
CH	3114	Wichtrach		BE	Bern-Mittelland District	246	Wichtrach	632	46.8501	7.5775	4
CH	3115	Gerzensee		BE	Bern-Mittelland District	246	Gerzensee	866	46.8402	7.545	4
CH	3116	Kirchdorf BE		BE	Bern-Mittelland District	246	Kirchdorf (BE)	872	46.8209	7.5485	4
CH	3116	Noflen BE		BE	Bern-Mittelland District	246	Noflen	878	46.8056	7.5433	4
CH	3116	Mühledorf BE		BE	Bern-Mittelland District	246	Mühledorf (BE)	875	46.828	7.5299	4
CH	3122	Kehrsatz		BE	Bern-Mittelland District	246	Kehrsatz	870	46.9103	7.471	4
CH	3123	Belp		BE	Bern-Mittelland District	246	Belp	861	46.8913	7.4983	4
CH	3124	Belpberg		BE	Bern-Mittelland District	246	Belp	861	46.8673	7.5213	4
CH	3125	Toffen		BE	Bern-Mittelland District	246	Toffen	884	46.8603	7.4922	4
CH	3126	Gelterfingen		BE	Bern-Mittelland District	246	Gelterfingen	865	46.8445	7.5156	4
CH	3126	Kaufdorf		BE	Bern-Mittelland District	246	Kaufdorf	869	46.8403	7.4968	4
CH	3127	Mühlethurnen		BE	Bern-Mittelland District	246	Mühlethurnen	876	46.8135	7.5088	4
CH	3127	Lohnstorf		BE	Bern-Mittelland District	246	Lohnstorf	874	46.8077	7.5099	4
CH	3128	Kirchenthurnen		BE	Bern-Mittelland District	246	Kirchenthurnen	873	46.8238	7.5005	4
CH	3128	Rümligen		BE	Bern-Mittelland District	246	Rümligen	881	46.8217	7.4772	4
CH	3132	Riggisberg		BE	Bern-Mittelland District	246	Riggisberg	879	46.8103	7.4801	4
CH	3144	Gasel		BE	Bern-Mittelland District	246	Köniz	355	46.9022	7.4018	4
CH	3145	Niederscherli		BE	Bern-Mittelland District	246	Köniz	355	46.8851	7.3938	4
CH	3147	Mittelhäusern		BE	Bern-Mittelland District	246	Köniz	355	46.8778	7.3691	4
CH	3148	Lanzenhäusern		BE	Bern-Mittelland District	246	Schwarzenburg	855	46.8436	7.349	4
CH	3150	Schwarzenburg		BE	Bern-Mittelland District	246	Schwarzenburg	855	46.8181	7.3421	4
CH	3152	Mamishaus		BE	Bern-Mittelland District	246	Schwarzenburg	855	46.8101	7.3796	4
CH	3153	Rüschegg Gambach		BE	Bern-Mittelland District	246	Rüschegg	853	46.7789	7.3786	4
CH	3154	Rüschegg Heubach		BE	Bern-Mittelland District	246	Rüschegg	853	46.7832	7.4083	4
CH	3155	Helgisried-Rohrbach		BE	Bern-Mittelland District	246	Rüeggisberg	880	46.8176	7.4284	4
CH	3156	Riffenmatt		BE	Bern-Mittelland District	246	Guggisberg	852	46.7662	7.3529	4
CH	3157	Milken		BE	Bern-Mittelland District	246	Schwarzenburg	855	46.7937	7.359	4
CH	3158	Guggisberg		BE	Bern-Mittelland District	246	Guggisberg	852	46.7676	7.3295	4
CH	3159	Riedstätt		BE	Bern-Mittelland District	246	Guggisberg	852	46.7841	7.3194	4
CH	3172	Niederwangen b. Bern		BE	Bern-Mittelland District	246	Köniz	355	46.9043	7.3977	1
CH	3173	Oberwangen b. Bern		BE	Bern-Mittelland District	246	Köniz	355	46.9043	7.3977	1
CH	3174	Thörishaus		BE	Bern-Mittelland District	246	Köniz	355	46.8939	7.3513	4
CH	3176	Neuenegg		BE	Bern-Mittelland District	246	Neuenegg	670	46.8949	7.3047	4
CH	3177	Laupen BE		BE	Bern-Mittelland District	246	Laupen	667	46.9021	7.2397	4
CH	3179	Kriechenwil		BE	Bern-Mittelland District	246	Kriechenwil	666	46.9097	7.2196	4
CH	3183	Albligen		BE	Bern-Mittelland District	246	Schwarzenburg	855	46.8523	7.3181	4
CH	3202	Frauenkappelen		BE	Bern-Mittelland District	246	Frauenkappelen	663	46.9542	7.3384	4
CH	3203	Mühleberg		BE	Bern-Mittelland District	246	Mühleberg	668	46.9547	7.261	4
CH	3204	Rosshäusern		BE	Bern-Mittelland District	246	Mühleberg	668	46.9332	7.2762	4
CH	3205	Gümmenen		BE	Bern-Mittelland District	246	Mühleberg	668	46.9456	7.2409	4
CH	3206	Rizenbach		BE	Bern-Mittelland District	246	Ferenbalm	662	46.944	7.2232	4
CH	3206	Gammen		BE	Bern-Mittelland District	246	Ferenbalm	662	46.9208	7.228	4
CH	3206	Biberen		BE	Bern-Mittelland District	246	Ferenbalm	662	46.9404	7.213	4
CH	3206	Ferenbalm		BE	Bern-Mittelland District	246	Ferenbalm	662	46.9488	7.2112	4
CH	3207	Wileroltigen		BE	Bern-Mittelland District	246	Wileroltigen	671	46.9709	7.2392	4
CH	3207	Golaten		BE	Bern-Mittelland District	246	Golaten	664	46.9844	7.2352	4
CH	3208	Gurbrü		BE	Bern-Mittelland District	246	Gurbrü	665	46.9648	7.2153	4
CH	3302	Moosseedorf		BE	Bern-Mittelland District	246	Moosseedorf	544	47.0168	7.4839	4
CH	3303	Zuzwil BE		BE	Bern-Mittelland District	246	Zuzwil (BE)	557	47.0511	7.4681	4
CH	3303	Ballmoos		BE	Bern-Mittelland District	246	Jegenstorf	540	47.0405	7.4759	4
CH	3303	Münchringen		BE	Bern-Mittelland District	246	Jegenstorf	540	47.0477	7.5247	4
CH	3303	Jegenstorf		BE	Bern-Mittelland District	246	Jegenstorf	540	47.048	7.5079	4
CH	3305	Scheunen		BE	Bern-Mittelland District	246	Jegenstorf	540	47.0693	7.4583	4
CH	3305	Iffwil		BE	Bern-Mittelland District	246	Iffwil	541	47.064	7.4829	4
CH	3306	Etzelkofen		BE	Bern-Mittelland District	246	Fraubrunnen	538	47.0845	7.4806	4
CH	3308	Grafenried		BE	Bern-Mittelland District	246	Fraubrunnen	538	47.0765	7.5147	4
CH	3309	Zauggenried		BE	Bern-Mittelland District	246	Fraubrunnen	538	47.0727	7.5355	4
CH	3312	Fraubrunnen		BE	Bern-Mittelland District	246	Fraubrunnen	538	47.0862	7.5273	4
CH	3313	Büren zum Hof		BE	Bern-Mittelland District	246	Fraubrunnen	538	47.0977	7.5135	4
CH	3314	Schalunen		BE	Bern-Mittelland District	246	Fraubrunnen	538	47.1105	7.5263	4
CH	3317	Mülchi		BE	Bern-Mittelland District	246	Fraubrunnen	538	47.1018	7.4736	4
CH	3317	Limpach		BE	Bern-Mittelland District	246	Fraubrunnen	538	47.1077	7.4979	4
CH	3322	Urtenen-Schönbühl		BE	Bern-Mittelland District	246	Urtenen-Schönbühl	551	47.0209	7.4999	4
CH	3322	Mattstetten		BE	Bern-Mittelland District	246	Mattstetten	543	47.0282	7.5189	4
CH	3323	Bäriswil BE		BE	Bern-Mittelland District	246	Bäriswil	403	47.0195	7.5271	4
CH	3434	Obergoldbach		BE	Bern-Mittelland District	246	Landiswil	613	46.962	7.6739	4
CH	3434	Landiswil		BE	Bern-Mittelland District	246	Landiswil	613	46.9582	7.6803	4
CH	3503	Gysenstein		BE	Bern-Mittelland District	246	Konolfingen	612	46.8915	7.5924	4
CH	3504	Niederhünigen		BE	Bern-Mittelland District	246	Niederhünigen	617	46.879	7.6386	4
CH	3504	Oberhünigen		BE	Bern-Mittelland District	246	Oberhünigen	629	46.881	7.6598	4
CH	3506	Grosshöchstetten		BE	Bern-Mittelland District	246	Grosshöchstetten	608	46.9067	7.6378	4
CH	3507	Biglen		BE	Bern-Mittelland District	246	Biglen	603	46.9263	7.6251	4
CH	3508	Arni BE		BE	Bern-Mittelland District	246	Arni (BE)	602	46.9352	7.6647	4
CH	3510	Freimettigen		BE	Bern-Mittelland District	246	Freimettigen	607	46.8664	7.6311	4
CH	3510	Konolfingen		BE	Bern-Mittelland District	246	Konolfingen	612	46.8791	7.6201	4
CH	3510	Häutligen		BE	Bern-Mittelland District	246	Häutligen	609	46.8576	7.6067	4
CH	3512	Walkringen		BE	Bern-Mittelland District	246	Walkringen	626	46.9486	7.6204	4
CH	3513	Bigenthal		BE	Bern-Mittelland District	246	Walkringen	626	46.9661	7.624	4
CH	3531	Oberthal		BE	Bern-Mittelland District	246	Oberthal	620	46.9184	7.6781	4
CH	3532	Mirchel		BE	Bern-Mittelland District	246	Mirchel	615	46.8946	7.6499	4
CH	3532	Zäziwil		BE	Bern-Mittelland District	246	Zäziwil	628	46.902	7.6618	4
CH	3533	Bowil		BE	Bern-Mittelland District	246	Bowil	605	46.893	7.6976	4
CH	3629	Jaberg		BE	Bern-Mittelland District	246	Jaberg	868	46.818	7.5692	4
CH	3629	Oppligen		BE	Bern-Mittelland District	246	Oppligen	622	46.8184	7.6007	4
CH	3629	Kiesen		BE	Bern-Mittelland District	246	Kiesen	611	46.8196	7.584	4
CH	3671	Brenzikofen		BE	Bern-Mittelland District	246	Brenzikofen	606	46.8181	7.6171	4
CH	3671	Herbligen		BE	Bern-Mittelland District	246	Herbligen	610	46.8299	7.6063	4
CH	3672	Oberdiessbach		BE	Bern-Mittelland District	246	Oberdiessbach	619	46.8395	7.6196	4
CH	3672	Aeschlen b. Oberdiessbach		BE	Bern-Mittelland District	246	Oberdiessbach	619	46.8395	7.6196	3
CH	3673	Linden		BE	Bern-Mittelland District	246	Linden	614	46.8487	7.6749	4
CH	3674	Bleiken b. Oberdiessbach		BE	Bern-Mittelland District	246	Oberdiessbach	619	46.8341	7.6295	1
CH	3600	Thun		BE	Thun District	247	Thun	942	46.7512	7.6217	4
CH	3603	Thun		BE	Thun District	247	Thun	942	46.7512	7.6217	4
CH	3604	Thun		BE	Thun District	247	Thun	942	46.7512	7.6217	4
CH	3608	Thun		BE	Thun District	247	Thun	942	46.7512	7.6217	4
CH	3612	Steffisburg		BE	Thun District	247	Steffisburg	939	46.7781	7.6325	4
CH	3613	Steffisburg		BE	Thun District	247	Steffisburg	939	46.7781	7.6325	4
CH	3614	Unterlangenegg		BE	Thun District	247	Unterlangenegg	945	46.7993	7.7012	4
CH	3615	Heimenschwand		BE	Thun District	247	Buchholterberg	923	46.8287	7.6947	4
CH	3616	Schwarzenegg		BE	Thun District	247	Unterlangenegg	945	46.7953	7.7168	4
CH	3617	Fahrni b. Thun		BE	Thun District	247	Fahrni	925	46.794	7.655	4
CH	3619	Eriz		BE	Thun District	247	Eriz	924	46.7877	7.771	4
CH	3619	Innereriz		BE	Thun District	247	Eriz	924	46.7883	7.8239	4
CH	3622	Homberg b. Thun		BE	Thun District	247	Homberg	931	46.7733	7.6768	4
CH	3623	Horrenbach		BE	Thun District	247	Horrenbach-Buchen	932	46.7748	7.7824	1
CH	3623	Teuffenthal b. Thun		BE	Thun District	247	Teuffenthal (BE)	940	46.7658	7.7127	1
CH	3623	Buchen BE		BE	Thun District	247	Horrenbach-Buchen	932	46.7748	7.7824	1
CH	3624	Goldiwil (Thun)		BE	Thun District	247	Thun	942	46.764	7.6706	4
CH	3624	Schwendibach		BE	Thun District	247	Schwendibach	937	46.7699	7.6619	4
CH	3625	Heiligenschwendi		BE	Thun District	247	Heiligenschwendi	927	46.7511	7.6839	4
CH	3626	Hünibach		BE	Thun District	247	Hilterfingen	929	46.7462	7.6503	4
CH	3627	Heimberg		BE	Thun District	247	Heimberg	928	46.7948	7.6043	4
CH	3628	Uttigen		BE	Thun District	247	Uttigen	885	46.7944	7.5779	4
CH	3631	Höfen b. Thun		BE	Thun District	247	Stocken-Höfen	770	46.7101	7.5636	1
CH	3632	Oberstocken		BE	Thun District	247	Stocken-Höfen	770	46.7175	7.5547	4
CH	3632	Niederstocken		BE	Thun District	247	Stocken-Höfen	770	46.7106	7.5721	4
CH	3633	Amsoldingen		BE	Thun District	247	Amsoldingen	921	46.7275	7.5825	4
CH	3634	Thierachern		BE	Thun District	247	Thierachern	941	46.7532	7.5744	4
CH	3635	Uebeschi		BE	Thun District	247	Uebeschi	943	46.7395	7.5473	4
CH	3636	Längenbühl		BE	Thun District	247	Forst-Längenbühl	948	46.7647	7.5233	4
CH	3636	Forst b. Längenbühl		BE	Thun District	247	Forst-Längenbühl	948	46.7647	7.5233	4
CH	3638	Blumenstein		BE	Thun District	247	Blumenstein	922	46.7421	7.5214	4
CH	3638	Pohlern		BE	Thun District	247	Pohlern	936	46.7252	7.5353	4
CH	3645	Zwieselberg		BE	Thun District	247	Zwieselberg	947	46.7101	7.6167	4
CH	3647	Reutigen		BE	Thun District	247	Reutigen	767	46.6936	7.621	4
CH	3652	Hilterfingen		BE	Thun District	247	Hilterfingen	929	46.7352	7.6618	4
CH	3653	Oberhofen am Thunersee		BE	Thun District	247	Oberhofen am Thunersee	934	46.7315	7.669	4
CH	3654	Gunten		BE	Thun District	247	Sigriswil	938	46.7119	7.7024	4
CH	3655	Sigriswil		BE	Thun District	247	Sigriswil	938	46.7166	7.7133	4
CH	3656	Tschingel ob Gunten		BE	Thun District	247	Sigriswil	938	46.7273	7.6981	3
CH	3656	Ringoldswil		BE	Thun District	247	Sigriswil	938	46.7347	7.6955	4
CH	3656	Aeschlen ob Gunten		BE	Thun District	247	Sigriswil	938	46.72	7.7006	4
CH	3657	Schwanden (Sigriswil)		BE	Thun District	247	Sigriswil	938	46.7364	7.7178	4
CH	3658	Merligen		BE	Thun District	247	Sigriswil	938	46.6975	7.7387	4
CH	3661	Uetendorf		BE	Thun District	247	Uetendorf	944	46.7739	7.5725	4
CH	3662	Seftigen		BE	Thun District	247	Seftigen	883	46.7876	7.5394	4
CH	3663	Gurzelen		BE	Thun District	247	Gurzelen	867	46.7764	7.5426	4
CH	3664	Burgistein		BE	Thun District	247	Burgistein	863	46.7846	7.4999	4
CH	3665	Wattenwil		BE	Thun District	247	Wattenwil	886	46.7697	7.5083	4
CH	1657	Abländschen		BE	Obersimmental-Saanen District	248	Saanen	843	46.5724	7.2892	4
CH	3766	Boltigen		BE	Obersimmental-Saanen District	248	Boltigen	791	46.6289	7.3911	4
CH	3770	Zweisimmen		BE	Obersimmental-Saanen District	248	Zweisimmen	794	46.5554	7.373	4
CH	3771	Blankenburg		BE	Obersimmental-Saanen District	248	Zweisimmen	794	46.5333	7.3833	4
CH	3772	St. Stephan		BE	Obersimmental-Saanen District	248	St. Stephan	793	46.5083	7.3956	4
CH	3773	Matten (St. Stephan)		BE	Obersimmental-Saanen District	248	St. Stephan	793	46.4959	7.4245	4
CH	3775	Lenk im Simmental		BE	Obersimmental-Saanen District	248	Lenk	792	46.4583	7.443	4
CH	3776	Oeschseite		BE	Obersimmental-Saanen District	248	Zweisimmen	794	46.5306	7.3511	4
CH	3777	Saanenmöser		BE	Obersimmental-Saanen District	248	Saanen	843	46.5164	7.3094	4
CH	3778	Schönried		BE	Obersimmental-Saanen District	248	Saanen	843	46.5039	7.2888	4
CH	3780	Gstaad		BE	Obersimmental-Saanen District	248	Saanen	843	46.4722	7.2869	4
CH	3781	Turbach		BE	Obersimmental-Saanen District	248	Saanen	843	46.4786	7.3312	4
CH	3782	Lauenen b. Gstaad		BE	Obersimmental-Saanen District	248	Lauenen	842	46.4244	7.3217	4
CH	3783	Grund b. Gstaad		BE	Obersimmental-Saanen District	248	Saanen	843	46.4516	7.2778	4
CH	3784	Feutersoey		BE	Obersimmental-Saanen District	248	Gsteig	841	46.4156	7.271	4
CH	3785	Gsteig b. Gstaad		BE	Obersimmental-Saanen District	248	Gsteig	841	46.3859	7.2675	4
CH	3792	Saanen		BE	Obersimmental-Saanen District	248	Saanen	843	46.4894	7.26	4
CH	3645	Gwatt (Thun)		BE	Frutigen-Niedersimmental District	249	Spiez	768	46.7204	7.6223	4
CH	3646	Einigen		BE	Frutigen-Niedersimmental District	249	Spiez	768	46.708	7.6483	4
CH	3700	Spiez		BE	Frutigen-Niedersimmental District	249	Spiez	768	46.6847	7.6911	4
CH	3702	Hondrich		BE	Frutigen-Niedersimmental District	249	Spiez	768	46.672	7.6811	4
CH	3703	Aeschi b. Spiez		BE	Frutigen-Niedersimmental District	249	Aeschi bei Spiez	562	46.6462	7.7258	3
CH	3703	Aeschiried		BE	Frutigen-Niedersimmental District	249	Aeschi bei Spiez	562	46.6462	7.7258	4
CH	3704	Krattigen		BE	Frutigen-Niedersimmental District	249	Krattigen	566	46.6614	7.7278	4
CH	3705	Faulensee		BE	Frutigen-Niedersimmental District	249	Spiez	768	46.6742	7.7023	4
CH	3711	Emdthal		BE	Frutigen-Niedersimmental District	249	Aeschi bei Spiez	562	46.6543	7.685	4
CH	3711	Mülenen		BE	Frutigen-Niedersimmental District	249	Reichenbach im Kandertal	567	46.6394	7.6941	4
CH	3713	Reichenbach im Kandertal		BE	Frutigen-Niedersimmental District	249	Reichenbach im Kandertal	567	46.6254	7.6936	4
CH	3714	Wengi b. Frutigen		BE	Frutigen-Niedersimmental District	249	Reichenbach im Kandertal	567	46.5753	7.7369	3
CH	3714	Frutigen		BE	Frutigen-Niedersimmental District	249	Frutigen	563	46.5872	7.6494	4
CH	3715	Adelboden		BE	Frutigen-Niedersimmental District	249	Adelboden	561	46.4914	7.5603	4
CH	3716	Kandergrund		BE	Frutigen-Niedersimmental District	249	Kandergrund	564	46.5621	7.659	4
CH	3717	Blausee-Mitholz		BE	Frutigen-Niedersimmental District	249	Kandergrund	564	46.5332	7.6641	4
CH	3718	Kandersteg		BE	Frutigen-Niedersimmental District	249	Kandersteg	565	46.4947	7.6733	4
CH	3722	Scharnachtal		BE	Frutigen-Niedersimmental District	249	Reichenbach im Kandertal	567	46.6162	7.698	4
CH	3723	Kiental		BE	Frutigen-Niedersimmental District	249	Reichenbach im Kandertal	567	46.5877	7.7245	4
CH	3724	Ried (Frutigen)		BE	Frutigen-Niedersimmental District	249	Frutigen	563	46.5668	7.6172	4
CH	3725	Achseten		BE	Frutigen-Niedersimmental District	249	Frutigen	563	46.5277	7.5967	4
CH	3752	Wimmis		BE	Frutigen-Niedersimmental District	249	Wimmis	769	46.6759	7.6397	4
CH	3753	Oey		BE	Frutigen-Niedersimmental District	249	Diemtigen	762	46.6592	7.5768	4
CH	3754	Diemtigen		BE	Frutigen-Niedersimmental District	249	Diemtigen	762	46.6493	7.5648	4
CH	3755	Horboden		BE	Frutigen-Niedersimmental District	249	Diemtigen	762	46.6316	7.5621	4
CH	3756	Zwischenflüh		BE	Frutigen-Niedersimmental District	249	Diemtigen	762	46.6072	7.5155	4
CH	3757	Schwenden im Diemtigtal		BE	Frutigen-Niedersimmental District	249	Diemtigen	762	46.5801	7.4906	4
CH	3758	Latterbach		BE	Frutigen-Niedersimmental District	249	Erlenbach im Simmental	763	46.6656	7.5768	4
CH	3762	Erlenbach im Simmental		BE	Frutigen-Niedersimmental District	249	Erlenbach im Simmental	763	46.6602	7.5545	4
CH	3763	Därstetten		BE	Frutigen-Niedersimmental District	249	Därstetten	761	46.6595	7.4911	4
CH	3764	Weissenburg		BE	Frutigen-Niedersimmental District	249	Därstetten	761	46.6582	7.476	4
CH	3765	Oberwil im Simmental		BE	Frutigen-Niedersimmental District	249	Oberwil im Simmental	766	46.6569	7.4351	4
CH	3706	Leissigen		BE	Interlaken-Oberhasli District	250	Leissigen	585	46.6546	7.7755	4
CH	3707	Därligen		BE	Interlaken-Oberhasli District	250	Därligen	575	46.6618	7.8081	4
CH	3800	Matten b. Interlaken		BE	Interlaken-Oberhasli District	250	Matten bei Interlaken	587	46.6783	7.8689	4
CH	3800	Sundlauenen		BE	Interlaken-Oberhasli District	250	Beatenberg	571	46.6863	7.7931	4
CH	3800	Interlaken		BE	Interlaken-Oberhasli District	250	Interlaken	581	46.6839	7.8664	4
CH	3800	Interlaken		BE	Interlaken-Oberhasli District	250	Gündlischwand	578	46.652	7.9337	4
CH	3800	Unterseen		BE	Interlaken-Oberhasli District	250	Unterseen	593	46.6853	7.8472	4
CH	3803	Beatenberg		BE	Interlaken-Oberhasli District	250	Beatenberg	571	46.699	7.7943	4
CH	3804	Habkern		BE	Interlaken-Oberhasli District	250	Habkern	579	46.7264	7.863	4
CH	3805	Goldswil b. Interlaken		BE	Interlaken-Oberhasli District	250	Ringgenberg (BE)	590	46.6967	7.8781	4
CH	3806	Bönigen b. Interlaken		BE	Interlaken-Oberhasli District	250	Bönigen	572	46.6874	7.8935	4
CH	3807	Iseltwald		BE	Interlaken-Oberhasli District	250	Iseltwald	582	46.7108	7.9642	4
CH	3812	Wilderswil		BE	Interlaken-Oberhasli District	250	Wilderswil	594	46.6637	7.8617	4
CH	3813	Saxeten		BE	Interlaken-Oberhasli District	250	Saxeten	591	46.6366	7.8309	4
CH	3814	Gsteigwiler		BE	Interlaken-Oberhasli District	250	Gsteigwiler	577	46.6554	7.8719	4
CH	3815	Zweilütschinen		BE	Interlaken-Oberhasli District	250	Gündlischwand	578	46.6314	7.9015	4
CH	3815	Gündlischwand		BE	Interlaken-Oberhasli District	250	Gündlischwand	578	46.6322	7.9127	4
CH	3816	Lütschental		BE	Interlaken-Oberhasli District	250	Lütschental	586	46.6378	7.947	4
CH	3816	Burglauenen		BE	Interlaken-Oberhasli District	250	Grindelwald	576	46.6372	7.9764	4
CH	3818	Grindelwald		BE	Interlaken-Oberhasli District	250	Grindelwald	576	46.624	8.036	4
CH	3822	Isenfluh		BE	Interlaken-Oberhasli District	250	Lauterbrunnen	584	46.6198	7.8948	4
CH	3822	Lauterbrunnen		BE	Interlaken-Oberhasli District	250	Lauterbrunnen	584	46.5931	7.9094	4
CH	3823	Eigergletscher		BE	Interlaken-Oberhasli District	250	Lauterbrunnen	584	46.5749	7.9738	4
CH	3823	Kleine Scheidegg		BE	Interlaken-Oberhasli District	250	Lauterbrunnen	584	46.5861	7.9613	4
CH	3823	Wengen		BE	Interlaken-Oberhasli District	250	Lauterbrunnen	584	46.606	7.9201	4
CH	3824	Stechelberg		BE	Interlaken-Oberhasli District	250	Lauterbrunnen	584	46.5431	7.9015	4
CH	3825	Mürren		BE	Interlaken-Oberhasli District	250	Lauterbrunnen	584	46.5588	7.8929	4
CH	3826	Gimmelwald		BE	Interlaken-Oberhasli District	250	Lauterbrunnen	584	46.5455	7.8914	4
CH	3852	Ringgenberg BE		BE	Interlaken-Oberhasli District	250	Ringgenberg (BE)	590	46.7011	7.8944	4
CH	3853	Niederried b. Interlaken		BE	Interlaken-Oberhasli District	250	Niederried bei Interlaken	588	46.7187	7.9324	4
CH	3854	Oberried am Brienzersee		BE	Interlaken-Oberhasli District	250	Oberried am Brienzersee	589	46.7363	7.9593	4
CH	3855	Brienz BE		BE	Interlaken-Oberhasli District	250	Brienz (BE)	573	46.7545	8.0385	4
CH	3855	Axalp		BE	Interlaken-Oberhasli District	250	Brienz (BE)	573	46.7252	8.0382	4
CH	3855	Schwanden b. Brienz		BE	Interlaken-Oberhasli District	250	Schwanden bei Brienz	592	46.7711	8.0557	3
CH	3856	Brienzwiler		BE	Interlaken-Oberhasli District	250	Brienzwiler	574	46.7508	8.1014	4
CH	3857	Unterbach BE		BE	Interlaken-Oberhasli District	250	Meiringen	785	46.7374	8.1101	4
CH	3858	Hofstetten b. Brienz		BE	Interlaken-Oberhasli District	250	Hofstetten bei Brienz	580	46.7535	8.0749	4
CH	3860	Brünig		BE	Interlaken-Oberhasli District	250	Meiringen	785	46.7186	8.1342	3
CH	3860	Meiringen		BE	Interlaken-Oberhasli District	250	Meiringen	785	46.7271	8.1872	4
CH	3860	Schattenhalb		BE	Interlaken-Oberhasli District	250	Schattenhalb	786	46.719	8.1907	4
CH	3860	Rosenlaui		BE	Interlaken-Oberhasli District	250	Schattenhalb	786	46.6796	8.1539	4
CH	3862	Innertkirchen		BE	Interlaken-Oberhasli District	250	Innertkirchen	784	46.7047	8.2288	4
CH	3863	Gadmen		BE	Interlaken-Oberhasli District	250	Innertkirchen	784	46.7373	8.3522	4
CH	3864	Guttannen		BE	Interlaken-Oberhasli District	250	Guttannen	782	46.6551	8.2895	4
CH	6083	Hasliberg Hohfluh		BE	Interlaken-Oberhasli District	250	Hasliberg	783	46.7526	8.1705	4
CH	6084	Hasliberg Wasserwendi		BE	Interlaken-Oberhasli District	250	Hasliberg	783	46.7471	8.1994	4
CH	6085	Hasliberg Goldern		BE	Interlaken-Oberhasli District	250	Hasliberg	783	46.7408	8.2001	4
CH	6086	Hasliberg Reuti		BE	Interlaken-Oberhasli District	250	Hasliberg	783	46.7319	8.2107	4
CH	4101	Bruderholz		BL	Bezirk Arlesheim	1301	Binningen	2765	47.5366	7.5679	4
CH	4102	Binningen		BL	Bezirk Arlesheim	1301	Binningen	2765	47.5402	7.5693	4
CH	4103	Bottmingen		BL	Bezirk Arlesheim	1301	Bottmingen	2767	47.5234	7.5721	4
CH	4104	Oberwil BL		BL	Bezirk Arlesheim	1301	Oberwil (BL)	2771	47.5141	7.5579	4
CH	4105	Biel-Benken BL		BL	Bezirk Arlesheim	1301	Biel-Benken	2764	47.5078	7.5258	4
CH	4106	Therwil		BL	Bezirk Arlesheim	1301	Therwil	2775	47.5012	7.5529	4
CH	4107	Ettingen		BL	Bezirk Arlesheim	1301	Ettingen	2768	47.4827	7.5498	4
CH	4123	Allschwil		BL	Bezirk Arlesheim	1301	Allschwil	2762	47.5507	7.536	4
CH	4124	Schönenbuch		BL	Bezirk Arlesheim	1301	Schönenbuch	2774	47.5385	7.5057	4
CH	4127	Birsfelden		BL	Bezirk Arlesheim	1301	Birsfelden	2766	47.5529	7.6232	4
CH	4132	Muttenz		BL	Bezirk Arlesheim	1301	Muttenz	2770	47.5227	7.6451	4
CH	4142	Münchenstein		BL	Bezirk Arlesheim	1301	Münchenstein	2769	47.5185	7.6097	4
CH	4144	Arlesheim		BL	Bezirk Arlesheim	1301	Arlesheim	2763	47.4941	7.6198	4
CH	4147	Aesch BL		BL	Bezirk Arlesheim	1301	Aesch (BL)	2761	47.471	7.5973	4
CH	4148	Pfeffingen		BL	Bezirk Arlesheim	1301	Pfeffingen	2772	47.4598	7.5898	4
CH	4153	Reinach BL		BL	Bezirk Arlesheim	1301	Reinach (BL)	2773	47.497	7.5917	4
CH	2814	Roggenburg		BL	Bezirk Laufen	1302	Roggenburg	2790	47.431	7.3406	4
CH	4117	Burg im Leimental		BL	Bezirk Laufen	1302	Burg im Leimental	2783	47.4596	7.4381	4
CH	4202	Duggingen		BL	Bezirk Laufen	1302	Duggingen	2785	47.4518	7.6051	4
CH	4203	Grellingen		BL	Bezirk Laufen	1302	Grellingen	2786	47.4423	7.5891	4
CH	4222	Zwingen		BL	Bezirk Laufen	1302	Zwingen	2793	47.4382	7.5303	4
CH	4223	Blauen		BL	Bezirk Laufen	1302	Blauen	2781	47.4502	7.5185	4
CH	4224	Nenzlingen		BL	Bezirk Laufen	1302	Nenzlingen	2789	47.4474	7.557	4
CH	4225	Brislach		BL	Bezirk Laufen	1302	Brislach	2782	47.4176	7.5434	4
CH	4242	Laufen		BL	Bezirk Laufen	1302	Laufen	2787	47.4219	7.4995	4
CH	4243	Dittingen		BL	Bezirk Laufen	1302	Dittingen	2784	47.442	7.4962	4
CH	4244	Röschenz		BL	Bezirk Laufen	1302	Röschenz	2791	47.4237	7.4802	4
CH	4246	Wahlen b. Laufen		BL	Bezirk Laufen	1302	Wahlen	2792	47.398	7.5115	1
CH	4253	Liesberg		BL	Bezirk Laufen	1302	Liesberg	2788	47.404	7.4279	4
CH	4254	Liesberg Dorf		BL	Bezirk Laufen	1302	Liesberg	2788	47.4033	7.4341	4
CH	4133	Pratteln		BL	Bezirk Liestal	1303	Pratteln	2831	47.5207	7.6936	4
CH	4302	Augst BL		BL	Bezirk Liestal	1303	Augst	2822	47.5356	7.7147	4
CH	4304	Giebenach		BL	Bezirk Liestal	1303	Giebenach	2826	47.523	7.7397	4
CH	4402	Frenkendorf		BL	Bezirk Liestal	1303	Frenkendorf	2824	47.5069	7.7165	4
CH	4410	Liestal		BL	Bezirk Liestal	1303	Liestal	2829	47.4846	7.7345	4
CH	4411	Seltisberg		BL	Bezirk Liestal	1303	Seltisberg	2833	47.4595	7.7173	4
CH	4414	Füllinsdorf		BL	Bezirk Liestal	1303	Füllinsdorf	2825	47.5069	7.7313	4
CH	4415	Lausen		BL	Bezirk Liestal	1303	Lausen	2828	47.4714	7.7603	4
CH	4416	Bubendorf		BL	Bezirk Liestal	1303	Bubendorf	2823	47.4459	7.7376	4
CH	4417	Ziefen		BL	Bezirk Liestal	1303	Ziefen	2834	47.4292	7.7053	4
CH	4419	Lupsingen		BL	Bezirk Liestal	1303	Lupsingen	2830	47.4463	7.6961	4
CH	4422	Arisdorf		BL	Bezirk Liestal	1303	Arisdorf	2821	47.5132	7.7651	4
CH	4423	Hersberg		BL	Bezirk Liestal	1303	Hersberg	2827	47.4921	7.7831	4
CH	4433	Ramlinsburg		BL	Bezirk Liestal	1303	Ramlinsburg	2832	47.4491	7.7696	4
CH	4441	Thürnen		BL	Bezirk Sissach	1304	Thürnen	2864	47.4531	7.8288	4
CH	4442	Diepflingen		BL	Bezirk Sissach	1304	Diepflingen	2845	47.4444	7.8364	4
CH	4443	Wittinsburg		BL	Bezirk Sissach	1304	Wittinsburg	2867	47.4252	7.8413	4
CH	4444	Rümlingen		BL	Bezirk Sissach	1304	Rümlingen	2859	47.424	7.8479	4
CH	4445	Häfelfingen		BL	Bezirk Sissach	1304	Häfelfingen	2847	47.4149	7.866	4
CH	4446	Buckten		BL	Bezirk Sissach	1304	Buckten	2843	47.4099	7.8448	4
CH	4447	Känerkinden		BL	Bezirk Sissach	1304	Känerkinden	2850	47.4119	7.8372	4
CH	4448	Läufelfingen		BL	Bezirk Sissach	1304	Läufelfingen	2852	47.3946	7.8558	4
CH	4450	Sissach		BL	Bezirk Sissach	1304	Sissach	2861	47.4641	7.8089	4
CH	4451	Wintersingen		BL	Bezirk Sissach	1304	Wintersingen	2866	47.4941	7.8241	4
CH	4452	Itingen		BL	Bezirk Sissach	1304	Itingen	2849	47.4665	7.785	4
CH	4453	Nusshof		BL	Bezirk Sissach	1304	Nusshof	2854	47.4914	7.8007	4
CH	4455	Zunzgen		BL	Bezirk Sissach	1304	Zunzgen	2869	47.4492	7.8079	4
CH	4456	Tenniken		BL	Bezirk Sissach	1304	Tenniken	2863	47.4371	7.8115	4
CH	4460	Gelterkinden		BL	Bezirk Sissach	1304	Gelterkinden	2846	47.465	7.8517	4
CH	4461	Böckten		BL	Bezirk Sissach	1304	Böckten	2842	47.4654	7.8326	4
CH	4462	Rickenbach BL		BL	Bezirk Sissach	1304	Rickenbach (BL)	2857	47.486	7.8474	4
CH	4463	Buus		BL	Bezirk Sissach	1304	Buus	2844	47.5054	7.8648	4
CH	4464	Maisprach		BL	Bezirk Sissach	1304	Maisprach	2853	47.5246	7.847	4
CH	4465	Hemmiken		BL	Bezirk Sissach	1304	Hemmiken	2848	47.4888	7.8938	4
CH	4466	Ormalingen		BL	Bezirk Sissach	1304	Ormalingen	2856	47.4694	7.8725	4
CH	4467	Rothenfluh		BL	Bezirk Sissach	1304	Rothenfluh	2858	47.4626	7.9163	4
CH	4469	Anwil		BL	Bezirk Sissach	1304	Anwil	2841	47.453	7.9419	4
CH	4492	Tecknau		BL	Bezirk Sissach	1304	Tecknau	2862	47.4513	7.884	4
CH	4493	Wenslingen		BL	Bezirk Sissach	1304	Wenslingen	2865	47.4407	7.9075	4
CH	4494	Oltingen		BL	Bezirk Sissach	1304	Oltingen	2855	47.4302	7.9372	4
CH	4495	Zeglingen		BL	Bezirk Sissach	1304	Zeglingen	2868	47.4163	7.9048	4
CH	4496	Kilchberg BL		BL	Bezirk Sissach	1304	Kilchberg (BL)	2851	47.4249	7.894	4
CH	4497	Rünenberg		BL	Bezirk Sissach	1304	Rünenberg	2860	47.4348	7.8829	4
CH	4207	Bretzwil		BL	Bezirk Waldenburg	1305	Bretzwil	2883	47.3978	7.6522	4
CH	4418	Reigoldswil		BL	Bezirk Waldenburg	1305	Reigoldswil	2893	47.3982	7.6872	4
CH	4424	Arboldswil		BL	Bezirk Waldenburg	1305	Arboldswil	2881	47.4144	7.7176	4
CH	4425	Titterten		BL	Bezirk Waldenburg	1305	Titterten	2894	47.4021	7.7162	4
CH	4426	Lauwil		BL	Bezirk Waldenburg	1305	Lauwil	2889	47.39	7.6749	4
CH	4431	Bennwil		BL	Bezirk Waldenburg	1305	Bennwil	2882	47.4032	7.7799	4
CH	4432	Lampenberg		BL	Bezirk Waldenburg	1305	Lampenberg	2887	47.4256	7.7588	4
CH	4434	Hölstein		BL	Bezirk Waldenburg	1305	Hölstein	2886	47.4251	7.7714	4
CH	4435	Niederdorf		BL	Bezirk Waldenburg	1305	Niederdorf	2891	47.4095	7.7496	4
CH	4436	Liedertswil		BL	Bezirk Waldenburg	1305	Liedertswil	2890	47.3905	7.7207	4
CH	4436	Oberdorf BL		BL	Bezirk Waldenburg	1305	Oberdorf (BL)	2892	47.3931	7.7512	4
CH	4437	Waldenburg		BL	Bezirk Waldenburg	1305	Waldenburg	2895	47.3833	7.75	4
CH	4438	Langenbruck		BL	Bezirk Waldenburg	1305	Langenbruck	2888	47.3492	7.768	4
CH	4457	Diegten		BL	Bezirk Waldenburg	1305	Diegten	2884	47.4138	7.8109	4
CH	4458	Eptingen		BL	Bezirk Waldenburg	1305	Eptingen	2885	47.3847	7.819	4
CH	4001	Basel		BS	Basel-Stadt	1200	Basel	2701	47.5584	7.5733	4
CH	4051	Basel		BS	Basel-Stadt	1200	Basel	2701	47.5584	7.5733	4
CH	4052	Basel		BS	Basel-Stadt	1200	Basel	2701	47.5584	7.5733	4
CH	4052	Basel		BS	Basel-Stadt	1200	Basel	2701	47.5584	7.5733	4
CH	4053	Basel		BS	Basel-Stadt	1200	Basel	2701	47.5584	7.5733	4
CH	4054	Basel		BS	Basel-Stadt	1200	Basel	2701	47.5584	7.5733	4
CH	4055	Basel		BS	Basel-Stadt	1200	Basel	2701	47.5584	7.5733	4
CH	4056	Basel		BS	Basel-Stadt	1200	Basel	2701	47.5584	7.5733	4
CH	4057	Basel		BS	Basel-Stadt	1200	Basel	2701	47.5584	7.5733	4
CH	4058	Basel		BS	Basel-Stadt	1200	Basel	2701	47.5584	7.5733	4
CH	4059	Basel		BS	Basel-Stadt	1200	Basel	2701	47.5584	7.5733	4
CH	4125	Riehen		BS	Basel-Stadt	1200	Riehen	2703	47.5788	7.6468	4
CH	4126	Bettingen		BS	Basel-Stadt	1200	Bettingen	2702	47.5704	7.6643	4
CH	1410	Prévondavaux		FR	Broye District	1001	Prévondavaux	2038	46.7296	6.7956	4
CH	1468	Cheyres		FR	Broye District	1001	Cheyres-Châbles	2055	46.8144	6.7868	4
CH	1470	Bollion		FR	Broye District	1001	Lully (FR)	2025	46.8192	6.828	4
CH	1470	Estavayer-le-Lac		FR	Broye District	1001	Estavayer	2054	46.8488	6.8465	4
CH	1470	Seiry		FR	Broye District	1001	Lully (FR)	2025	46.8141	6.8313	4
CH	1470	Lully FR		FR	Broye District	1001	Lully (FR)	2025	46.834	6.8453	4
CH	1473	Châtillon FR		FR	Broye District	1001	Châtillon (FR)	2008	46.8305	6.8315	4
CH	1473	Font		FR	Broye District	1001	Estavayer	2054	46.8375	6.8221	4
CH	1474	Châbles FR		FR	Broye District	1001	Cheyres-Châbles	2055	46.8245	6.8108	4
CH	1475	Forel FR		FR	Broye District	1001	Estavayer	2054	46.8774	6.8891	4
CH	1475	Autavaux		FR	Broye District	1001	Estavayer	2054	46.8666	6.8782	4
CH	1475	Montbrelloz		FR	Broye District	1001	Estavayer	2054	46.8548	6.8876	4
CH	1482	Cugy FR		FR	Broye District	1001	Cugy (FR)	2011	46.8148	6.8889	4
CH	1483	Vesin		FR	Broye District	1001	Cugy (FR)	2011	46.8105	6.8752	4
CH	1483	Frasses		FR	Broye District	1001	Les Montets	2050	46.8282	6.8644	4
CH	1483	Montet (Broye)		FR	Broye District	1001	Les Montets	2050	46.8177	6.8679	4
CH	1484	Granges-de-Vesin		FR	Broye District	1001	Les Montets	2050	46.7989	6.8503	3
CH	1484	Aumont		FR	Broye District	1001	Les Montets	2050	46.7989	6.8503	4
CH	1485	Nuvilly		FR	Broye District	1001	Nuvilly	2035	46.7834	6.8278	4
CH	1486	Vuissens		FR	Broye District	1001	Estavayer	2054	46.7334	6.7662	4
CH	1489	Murist		FR	Broye District	1001	Estavayer	2054	46.7902	6.8071	4
CH	1527	Villeneuve FR		FR	Broye District	1001	Surpierre	2044	46.7421	6.8498	4
CH	1528	Praratoud		FR	Broye District	1001	Surpierre	2044	46.7353	6.8489	4
CH	1528	Surpierre		FR	Broye District	1001	Surpierre	2044	46.7421	6.8498	4
CH	1529	Cheiry		FR	Broye District	1001	Cheiry	2009	46.7504	6.8355	4
CH	1532	Fétigny		FR	Broye District	1001	Fétigny	2016	46.7982	6.9117	4
CH	1533	Ménières		FR	Broye District	1001	Ménières	2027	46.7827	6.8801	4
CH	1534	Chapelle (Broye)		FR	Broye District	1001	Cheiry	2009	46.7714	6.8524	4
CH	1541	Morens FR		FR	Broye District	1001	Estavayer	2054	46.8436	6.907	4
CH	1541	Bussy FR		FR	Broye District	1001	Estavayer	2054	46.8354	6.8886	4
CH	1541	Sévaz		FR	Broye District	1001	Sévaz	2043	46.8398	6.877	4
CH	1542	Rueyres-les-Prés		FR	Broye District	1001	Estavayer	2054	46.857	6.9111	4
CH	1544	Gletterens		FR	Broye District	1001	Gletterens	2022	46.8949	6.9369	4
CH	1563	Dompierre FR		FR	Broye District	1001	Belmont-Broye	2053	46.8521	6.9907	4
CH	1564	Domdidier		FR	Broye District	1001	Belmont-Broye	2053	46.8672	7.0134	4
CH	1565	Vallon		FR	Broye District	1001	Vallon	2045	46.8838	6.9554	4
CH	1566	Les Friques		FR	Broye District	1001	Saint-Aubin (FR)	2041	46.9043	6.9872	4
CH	1566	St-Aubin FR		FR	Broye District	1001	Saint-Aubin (FR)	2041	46.89	6.9805	4
CH	1567	Delley		FR	Broye District	1001	Delley-Portalban	2051	46.9198	6.9577	4
CH	1568	Portalban		FR	Broye District	1001	Delley-Portalban	2051	46.9189	6.9563	4
CH	1773	Russy		FR	Broye District	1001	Belmont-Broye	2053	46.8413	7.0035	4
CH	1773	Chandon		FR	Broye District	1001	Belmont-Broye	2053	46.8405	7.0489	4
CH	1773	Léchelles		FR	Broye District	1001	Belmont-Broye	2053	46.829	7.0162	4
CH	1774	Cousset		FR	Broye District	1001	Montagny (FR)	2029	46.8192	6.9793	4
CH	1774	Montagny-les-Monts		FR	Broye District	1001	Montagny (FR)	2029	46.8107	6.9915	4
CH	1774	Cousset		FR	Broye District	1001	Montagny (FR)	2029	46.8192	6.9793	4
CH	1775	Grandsivaz		FR	Broye District	1001	Montagny (FR)	2029	46.785	6.9808	4
CH	1775	Mannens		FR	Broye District	1001	Montagny (FR)	2029	46.7937	6.9689	4
CH	1776	Montagny-la-Ville		FR	Broye District	1001	Montagny (FR)	2029	46.8175	6.9957	4
CH	1553	Châtonnaye		FR	Glâne District	1002	Châtonnaye	2068	46.7545	6.938	4
CH	1608	Chapelle (Glâne)		FR	Glâne District	1002	Chapelle (Glâne)	2066	46.5887	6.8372	4
CH	1670	Esmonts		FR	Glâne District	1002	Ursy	2102	46.6432	6.8451	4
CH	1670	Bionnens		FR	Glâne District	1002	Ursy	2102	46.6351	6.8555	4
CH	1670	Ursy		FR	Glâne District	1002	Ursy	2102	46.6335	6.8371	4
CH	1673	Promasens		FR	Glâne District	1002	Rue	2097	46.6028	6.8238	4
CH	1673	Rue		FR	Glâne District	1002	Rue	2097	46.6192	6.8223	4
CH	1673	Gillarens		FR	Glâne District	1002	Rue	2097	46.5889	6.8281	4
CH	1673	Ecublens FR		FR	Glâne District	1002	Ecublens (FR)	2072	46.6074	6.8089	4
CH	1673	Auboranges		FR	Glâne District	1002	Auboranges	2061	46.5846	6.8045	4
CH	1674	Montet (Glâne)		FR	Glâne District	1002	Montet (Glâne)	2089	46.6413	6.813	4
CH	1674	Vuarmarens		FR	Glâne District	1002	Ursy	2102	46.6478	6.8287	4
CH	1674	Morlens		FR	Glâne District	1002	Ursy	2102	46.6542	6.8374	4
CH	1675	Blessens		FR	Glâne District	1002	Rue	2097	46.612	6.8388	4
CH	1675	Mossel		FR	Glâne District	1002	Ursy	2102	46.6086	6.8516	4
CH	1675	Vauderens		FR	Glâne District	1002	Ursy	2102	46.6228	6.8507	4
CH	1676	Chavannes-les-Forts		FR	Glâne District	1002	Siviriez	2099	46.653	6.8985	4
CH	1677	Prez-vers-Siviriez		FR	Glâne District	1002	Siviriez	2099	46.6397	6.8748	4
CH	1678	Siviriez		FR	Glâne District	1002	Siviriez	2099	46.6585	6.8777	4
CH	1679	Villaraboud		FR	Glâne District	1002	Siviriez	2099	46.6607	6.9135	4
CH	1680	Romont FR		FR	Glâne District	1002	Romont (FR)	2096	46.6965	6.919	4
CH	1680	Berlens		FR	Glâne District	1002	Mézières (FR)	2087	46.6959	6.9541	4
CH	1681	Hennens		FR	Glâne District	1002	Billens-Hennens	2063	46.6837	6.8864	4
CH	1681	Billens		FR	Glâne District	1002	Billens-Hennens	2063	46.6922	6.9008	4
CH	1684	Mézières FR		FR	Glâne District	1002	Mézières (FR)	2087	46.6796	6.9263	4
CH	1685	Villariaz		FR	Glâne District	1002	Vuisternens-devant-Romont	2113	46.6662	6.9409	4
CH	1686	Grangettes-près-Romont		FR	Glâne District	1002	Grangettes	2079	46.6717	6.9753	3
CH	1686	La Neirigue		FR	Glâne District	1002	Vuisternens-devant-Romont	2113	46.683	6.9525	4
CH	1687	Vuisternens-devant-Romont		FR	Glâne District	1002	Vuisternens-devant-Romont	2113	46.6478	6.9411	4
CH	1687	Estévenens		FR	Glâne District	1002	Vuisternens-devant-Romont	2113	46.6703	6.9551	4
CH	1687	La Magne		FR	Glâne District	1002	Vuisternens-devant-Romont	2113	46.6347	6.9323	4
CH	1688	Lieffrens		FR	Glâne District	1002	Vuisternens-devant-Romont	2113	46.638	6.9017	4
CH	1688	Sommentier		FR	Glâne District	1002	Vuisternens-devant-Romont	2113	46.6397	6.9131	4
CH	1689	Le Châtelard-près-Romont		FR	Glâne District	1002	Le Châtelard	2067	46.6804	6.9792	4
CH	1690	Lussy FR		FR	Glâne District	1002	La Folliaz	2116	46.7173	6.948	4
CH	1690	Villaz-St-Pierre		FR	Glâne District	1002	Villaz-Saint-Pierre	2111	46.7207	6.9564	4
CH	1691	Villarimboud		FR	Glâne District	1002	La Folliaz	2116	46.7417	6.9652	4
CH	1692	Massonnens		FR	Glâne District	1002	Massonnens	2086	46.6966	6.9762	4
CH	1694	Villarsiviriaux		FR	Glâne District	1002	Villorsonnens	2114	46.6994	7.0103	4
CH	1694	Orsonnens		FR	Glâne District	1002	Villorsonnens	2114	46.7157	6.995	4
CH	1694	Chavannes-sous-Orsonnens		FR	Glâne District	1002	Villorsonnens	2114	46.7273	6.9917	4
CH	1694	Villargiroud		FR	Glâne District	1002	Villorsonnens	2114	46.7055	7.0022	4
CH	1697	Les Ecasseys		FR	Glâne District	1002	Vuisternens-devant-Romont	2113	46.623	6.9108	4
CH	1697	La Joux FR		FR	Glâne District	1002	Vuisternens-devant-Romont	2113	46.6306	6.9401	4
CH	1748	Torny-le-Grand		FR	Glâne District	1002	Torny	2115	46.772	6.9667	4
CH	1749	Middes		FR	Glâne District	1002	Torny	2115	46.7692	6.9502	4
CH	1625	Maules		FR	Gruyère District	1003	Sâles	2152	46.64	6.9921	4
CH	1625	Sâles (Gruyère)		FR	Gruyère District	1003	Sâles	2152	46.6347	6.9734	4
CH	1626	Rueyres-Treyfayes		FR	Gruyère District	1003	Sâles	2152	46.653	6.9623	3
CH	1626	Romanens		FR	Gruyère District	1003	Sâles	2152	46.652	6.9714	4
CH	1626	Treyfayes		FR	Gruyère District	1003	Sâles	2152	46.6541	6.9533	4
CH	1627	Vaulruz		FR	Gruyère District	1003	Vaulruz	2155	46.6216	6.9882	4
CH	1628	Vuadens		FR	Gruyère District	1003	Vuadens	2160	46.6155	7.0173	4
CH	1630	Bulle		FR	Gruyère District	1003	Bulle	2125	46.618	7.0569	4
CH	1632	Riaz		FR	Gruyère District	1003	Riaz	2148	46.6422	7.0618	4
CH	1633	Marsens		FR	Gruyère District	1003	Marsens	2140	46.6564	7.0595	4
CH	1633	Vuippens		FR	Gruyère District	1003	Marsens	2140	46.66	7.0746	4
CH	1634	La Roche FR		FR	Gruyère District	1003	La Roche	2149	46.6962	7.1372	4
CH	1635	La Tour-de-Trême		FR	Gruyère District	1003	Bulle	2125	46.6106	7.065	4
CH	1636	Broc		FR	Gruyère District	1003	Broc	2124	46.6051	7.0989	4
CH	1637	Charmey (Gruyère)		FR	Gruyère District	1003	Val-de-Charmey	2163	46.6196	7.1649	4
CH	1638	Morlon		FR	Gruyère District	1003	Morlon	2143	46.6256	7.0838	4
CH	1642	Sorens		FR	Gruyère District	1003	Sorens	2153	46.6691	7.0525	4
CH	1643	Gumefens		FR	Gruyère District	1003	Pont-en-Ogoz	2122	46.6779	7.0766	4
CH	1644	Avry-devant-Pont		FR	Gruyère District	1003	Pont-en-Ogoz	2122	46.6871	7.0876	4
CH	1645	Le Bry		FR	Gruyère District	1003	Pont-en-Ogoz	2122	46.7046	7.0825	4
CH	1646	Echarlens		FR	Gruyère District	1003	Echarlens	2131	46.6478	7.0742	4
CH	1647	Corbières		FR	Gruyère District	1003	Corbières	2129	46.6595	7.101	4
CH	1648	Hauteville		FR	Gruyère District	1003	Hauteville	2137	46.6701	7.1104	4
CH	1649	Pont-la-Ville		FR	Gruyère District	1003	Pont-la-Ville	2147	46.7	7.1	4
CH	1651	Villarvolard		FR	Gruyère District	1003	Corbières	2129	46.6453	7.1074	4
CH	1652	Botterens		FR	Gruyère District	1003	Botterens	2123	46.616	7.1117	4
CH	1652	Villarbeney		FR	Gruyère District	1003	Botterens	2123	46.6302	7.1095	4
CH	1653	Châtel-sur-Montsalvens		FR	Gruyère District	1003	Châtel-sur-Montsalvens	2128	46.6165	7.1327	4
CH	1653	Crésuz		FR	Gruyère District	1003	Crésuz	2130	46.6206	7.1426	4
CH	1654	Cerniat FR		FR	Gruyère District	1003	Val-de-Charmey	2163	46.6333	7.1573	4
CH	1656	Jaun		FR	Gruyère District	1003	Jaun	2138	46.6113	7.2759	4
CH	1656	Im Fang		FR	Gruyère District	1003	Jaun	2138	46.5988	7.2362	4
CH	1661	Le Pâquier-Montbarry		FR	Gruyère District	1003	Le Pâquier (FR)	2145	46.5948	7.0533	4
CH	1663	Epagny		FR	Gruyère District	1003	Gruyères	2135	46.5896	7.0856	4
CH	1663	Pringy		FR	Gruyère District	1003	Gruyères	2135	46.5823	7.0733	4
CH	1663	Gruyères		FR	Gruyère District	1003	Gruyères	2135	46.5834	7.0821	4
CH	1663	Moléson-sur-Gruyères		FR	Gruyère District	1003	Gruyères	2135	46.5851	7.0803	3
CH	1665	Estavannens		FR	Gruyère District	1003	Bas-Intyamon	2162	46.5605	7.1019	4
CH	1666	Grandvillard		FR	Gruyère District	1003	Grandvillard	2134	46.539	7.0857	4
CH	1666	Villars-sous-Mont		FR	Gruyère District	1003	Bas-Intyamon	2162	46.5412	7.0704	4
CH	1667	Enney		FR	Gruyère District	1003	Bas-Intyamon	2162	46.5667	7.0842	4
CH	1669	Les Sciernes-d'Albeuve		FR	Gruyère District	1003	Haut-Intyamon	2121	46.4958	7.0337	4
CH	1669	Neirivue		FR	Gruyère District	1003	Haut-Intyamon	2121	46.525	7.0582	4
CH	1669	Montbovon		FR	Gruyère District	1003	Haut-Intyamon	2121	46.4882	7.0437	4
CH	1669	Lessoc		FR	Gruyère District	1003	Haut-Intyamon	2121	46.5048	7.0621	4
CH	1669	Albeuve		FR	Gruyère District	1003	Haut-Intyamon	2121	46.5173	7.0567	4
CH	1695	Rueyres-St-Laurent		FR	Sarine District	1004	Gibloux	2236	46.7129	7.0361	4
CH	1695	Villarlod		FR	Sarine District	1004	Gibloux	2236	46.7066	7.0218	4
CH	1695	Villarsel-le-Gibloux		FR	Sarine District	1004	Gibloux	2236	46.713	7.0177	4
CH	1695	Estavayer-le-Gibloux		FR	Sarine District	1004	Gibloux	2236	46.7241	7.0263	4
CH	1696	Vuisternens-en-Ogoz		FR	Sarine District	1004	Gibloux	2236	46.7081	7.054	4
CH	1700	Fribourg		FR	Sarine District	1004	Fribourg	2196	46.8024	7.1513	4
CH	1720	Corminboeuf		FR	Sarine District	1004	Corminboeuf	2183	46.8103	7.1054	4
CH	1720	Chésopelloz		FR	Sarine District	1004	Corminboeuf	2183	46.8022	7.0963	4
CH	1722	Bourguillon		FR	Sarine District	1004	Fribourg	2196	46.8013	7.1777	4
CH	1723	Marly		FR	Sarine District	1004	Marly	2206	46.7761	7.1646	4
CH	1723	Villarsel-sur-Marly		FR	Sarine District	1004	Villarsel-sur-Marly	2230	46.7618	7.172	4
CH	1723	Pierrafortscha		FR	Sarine District	1004	Pierrafortscha	2216	46.7748	7.1858	4
CH	1724	Ferpicloz		FR	Sarine District	1004	Ferpicloz	2194	46.7482	7.1622	4
CH	1724	Bonnefontaine		FR	Sarine District	1004	Le Mouret	2220	46.7414	7.2011	4
CH	1724	Zénauva		FR	Sarine District	1004	Le Mouret	2220	46.735	7.182	4
CH	1724	Senèdes		FR	Sarine District	1004	Senèdes	2225	46.7418	7.1419	4
CH	1724	Essert FR		FR	Sarine District	1004	Le Mouret	2220	46.7392	7.1645	4
CH	1724	Oberried FR		FR	Sarine District	1004	Le Mouret	2220	46.7381	7.1867	4
CH	1724	Montévraz		FR	Sarine District	1004	Le Mouret	2220	46.7263	7.1759	4
CH	1724	Le Mouret		FR	Sarine District	1004	Le Mouret	2220	46.7318	7.1875	4
CH	1725	Posieux		FR	Sarine District	1004	Hauterive (FR)	2233	46.7623	7.0971	4
CH	1726	Posat		FR	Sarine District	1004	Gibloux	2236	46.7389	7.0584	4
CH	1726	Farvagny		FR	Sarine District	1004	Gibloux	2236	46.7277	7.0663	4
CH	1726	Farvagny-le-Petit		FR	Sarine District	1004	Gibloux	2236	46.7287	7.0727	4
CH	1726	Grenilles		FR	Sarine District	1004	Gibloux	2236	46.7285	7.0503	4
CH	1727	Magnedens		FR	Sarine District	1004	Gibloux	2236	46.7435	7.0823	4
CH	1727	Corpataux		FR	Sarine District	1004	Gibloux	2236	46.7433	7.0971	4
CH	1728	Rossens FR		FR	Sarine District	1004	Gibloux	2236	46.7201	7.1034	4
CH	1730	Ecuvillens		FR	Sarine District	1004	Hauterive (FR)	2233	46.7578	7.0828	4
CH	1731	Ependes FR		FR	Sarine District	1004	Ependes (FR)	2189	46.7537	7.1461	4
CH	1732	Arconciel		FR	Sarine District	1004	Arconciel	2171	46.7473	7.1215	4
CH	1733	Treyvaux		FR	Sarine District	1004	Treyvaux	2226	46.728	7.1377	4
CH	1740	Neyruz FR		FR	Sarine District	1004	Neyruz (FR)	2211	46.7681	7.0669	4
CH	1741	Cottens FR		FR	Sarine District	1004	Cottens (FR)	2186	46.7522	7.0313	4
CH	1742	Autigny		FR	Sarine District	1004	Autigny	2173	46.7366	7.02	4
CH	1744	Chénens		FR	Sarine District	1004	Chénens	2177	46.7416	7.004	4
CH	1745	Lentigny		FR	Sarine District	1004	La Brillaz	2234	46.7611	7.0029	4
CH	1746	Prez-vers-Noréaz		FR	Sarine District	1004	Prez-vers-Noréaz	2221	46.7854	7.0158	4
CH	1747	Corserey		FR	Sarine District	1004	Corserey	2185	46.7731	6.9887	4
CH	1752	Villars-sur-Glâne		FR	Sarine District	1004	Villars-sur-Glâne	2228	46.7905	7.1172	4
CH	1753	Matran		FR	Sarine District	1004	Matran	2208	46.7859	7.0977	4
CH	1754	Avry-sur-Matran		FR	Sarine District	1004	Avry	2174	46.7875	7.0673	4
CH	1754	Rosé		FR	Sarine District	1004	Avry	2174	46.784	7.0629	4
CH	1754	Corjolens		FR	Sarine District	1004	Avry	2174	46.7869	7.0465	4
CH	1756	Lovens		FR	Sarine District	1004	La Brillaz	2234	46.7741	7.0211	4
CH	1756	Onnens FR		FR	Sarine District	1004	La Brillaz	2234	46.7747	7.0371	4
CH	1757	Noréaz		FR	Sarine District	1004	Noréaz	2213	46.8015	7.0278	4
CH	1762	Givisiez		FR	Sarine District	1004	Givisiez	2197	46.812	7.1264	4
CH	1763	Granges-Paccot		FR	Sarine District	1004	Granges-Paccot	2198	46.8267	7.1425	4
CH	1772	Grolley		FR	Sarine District	1004	Grolley	2200	46.8336	7.0712	4
CH	1772	Nierlet-les-Bois		FR	Sarine District	1004	Ponthaux	2217	46.8213	7.0585	4
CH	1772	Ponthaux		FR	Sarine District	1004	Ponthaux	2217	46.8153	7.0414	4
CH	1782	Formangueires		FR	Sarine District	1004	La Sonnaz	2235	46.8272	7.1166	4
CH	1782	Autafond		FR	Sarine District	1004	Belfaux	2175	46.8288	7.095	4
CH	1782	Cormagens		FR	Sarine District	1004	La Sonnaz	2235	46.8359	7.1359	4
CH	1782	Belfaux		FR	Sarine District	1004	Belfaux	2175	46.8217	7.1067	4
CH	1782	La Corbaz		FR	Sarine District	1004	La Sonnaz	2235	46.8404	7.1159	4
CH	1782	Lossy		FR	Sarine District	1004	La Sonnaz	2235	46.8351	7.1095	4
CH	1583	Villarepos		FR	Lake District	1005	Courtepin	2254	46.8643	7.1264	4
CH	1721	Misery		FR	Lake District	1005	Misery-Courtion	2272	46.8524	7.0639	4
CH	1721	Courtion		FR	Lake District	1005	Misery-Courtion	2272	46.8572	7.0689	4
CH	1721	Cormérod		FR	Lake District	1005	Misery-Courtion	2272	46.8671	7.0896	4
CH	1721	Cournillens		FR	Lake District	1005	Misery-Courtion	2272	46.8587	7.1026	4
CH	1783	Barberêche		FR	Lake District	1005	Courtepin	2254	46.8643	7.1264	4
CH	1783	Pensier		FR	Lake District	1005	Courtepin	2254	46.8643	7.1264	4
CH	1784	Wallenried		FR	Lake District	1005	Courtepin	2254	46.8643	7.1264	4
CH	1784	Courtepin		FR	Lake District	1005	Courtepin	2254	46.8655	7.1231	4
CH	1785	Cressier FR		FR	Lake District	1005	Cressier (FR)	2257	46.8979	7.1407	4
CH	1786	Sugiez		FR	Lake District	1005	Mont-Vully	2284	46.9619	7.1129	4
CH	1787	Mur (Vully) FR		FR	Lake District	1005	Mont-Vully	2284	46.9461	7.0644	4
CH	1787	Môtier (Vully)		FR	Lake District	1005	Mont-Vully	2284	46.9495	7.084	4
CH	1788	Praz (Vully)		FR	Lake District	1005	Mont-Vully	2284	46.9531	7.098	4
CH	1789	Lugnorre		FR	Lake District	1005	Mont-Vully	2284	46.951	7.0749	4
CH	1791	Courtaman		FR	Lake District	1005	Courtepin	2254	46.8734	7.1316	4
CH	1792	Cordast		FR	Lake District	1005	Gurmels	2262	46.876	7.1521	4
CH	1792	Guschelmuth		FR	Lake District	1005	Gurmels	2262	46.8866	7.1433	4
CH	1793	Jeuss		FR	Lake District	1005	Murten	2275	46.9365	7.1412	4
CH	1794	Salvenach		FR	Lake District	1005	Murten	2275	46.9365	7.1412	4
CH	1795	Courlevon		FR	Lake District	1005	Murten	2275	46.9365	7.1412	4
CH	1796	Courgevaux		FR	Lake District	1005	Courgevaux	2250	46.9065	7.1121	4
CH	3206	Wallenbuch		FR	Lake District	1005	Gurmels	2262	46.9295	7.2254	4
CH	3210	Kerzers		FR	Lake District	1005	Kerzers	2265	46.9759	7.1957	4
CH	3212	Kleingurmels		FR	Lake District	1005	Gurmels	2262	46.8862	7.1874	4
CH	3212	Gurmels		FR	Lake District	1005	Gurmels	2262	46.8941	7.1719	4
CH	3213	Kleinbösingen		FR	Lake District	1005	Kleinbösingen	2266	46.893	7.2024	3
CH	3213	Liebistorf		FR	Lake District	1005	Gurmels	2262	46.9088	7.1964	4
CH	3214	Ulmiz		FR	Lake District	1005	Ulmiz	2278	46.9319	7.1978	4
CH	3215	Gempenach		FR	Lake District	1005	Gempenach	2260	46.943	7.1992	4
CH	3215	Büchslen		FR	Lake District	1005	Murten	2275	46.9459	7.1816	4
CH	3215	Lurtigen		FR	Lake District	1005	Murten	2275	46.9284	7.1733	4
CH	3216	Agriswil		FR	Lake District	1005	Ried bei Kerzers	2276	46.9555	7.1978	4
CH	3216	Ried b. Kerzers		FR	Lake District	1005	Ried bei Kerzers	2276	46.9555	7.1978	3
CH	3280	Meyriez		FR	Lake District	1005	Meyriez	2271	46.9237	7.1066	4
CH	3280	Greng		FR	Lake District	1005	Greng	2261	46.9134	7.094	4
CH	3280	Murten		FR	Lake District	1005	Murten	2275	46.9283	7.1171	4
CH	3284	Fräschels		FR	Lake District	1005	Fräschels	2258	46.9979	7.2081	4
CH	3285	Galmiz		FR	Lake District	1005	Galmiz	2259	46.9488	7.158	4
CH	3286	Muntelier		FR	Lake District	1005	Muntelier	2274	46.9352	7.1236	4
CH	1712	Tafers		FR	Sense District	1006	Tafers	2306	46.8148	7.2185	4
CH	1713	St. Antoni		FR	Sense District	1006	St. Antoni	2302	46.8221	7.2609	4
CH	1714	Heitenried		FR	Sense District	1006	Heitenried	2296	46.8276	7.2994	4
CH	1715	Alterswil FR		FR	Sense District	1006	Alterswil	2291	46.7959	7.2588	4
CH	1716	Schwarzsee		FR	Sense District	1006	Plaffeien	2299	46.671	7.2818	4
CH	1716	Plaffeien		FR	Sense District	1006	Plaffeien	2299	46.742	7.2867	4
CH	1716	Oberschrot		FR	Sense District	1006	Plaffeien	2299	46.7413	7.2815	4
CH	1717	St. Ursen		FR	Sense District	1006	St. Ursen	2304	46.7869	7.2243	4
CH	1718	Rechthalten		FR	Sense District	1006	Rechthalten	2301	46.7677	7.2403	4
CH	1719	Zumholz		FR	Sense District	1006	Plaffeien	2299	46.6871	7.3155	4
CH	1719	Brünisried		FR	Sense District	1006	Brünisried	2292	46.7578	7.2785	4
CH	1734	Tentlingen		FR	Sense District	1006	Tentlingen	2307	46.7692	7.1977	4
CH	1735	Giffers		FR	Sense District	1006	Giffers	2294	46.7623	7.2085	4
CH	1736	St. Silvester		FR	Sense District	1006	St. Silvester	2303	46.7425	7.224	4
CH	1737	Plasselb		FR	Sense District	1006	Plasselb	2300	46.7349	7.2512	4
CH	3175	Flamatt		FR	Sense District	1006	Wünnewil-Flamatt	2309	46.8899	7.322	4
CH	3178	Bösingen		FR	Sense District	1006	Bösingen	2295	46.8923	7.2277	4
CH	3182	Ueberstorf		FR	Sense District	1006	Ueberstorf	2308	46.8659	7.31	4
CH	3184	Wünnewil		FR	Sense District	1006	Wünnewil-Flamatt	2309	46.874	7.2773	4
CH	3185	Schmitten FR		FR	Sense District	1006	Schmitten (FR)	2305	46.8575	7.2503	4
CH	3186	Düdingen		FR	Sense District	1006	Düdingen	2293	46.8492	7.1885	4
CH	1609	St-Martin FR		FR	Veveyse District	1007	Saint-Martin (FR)	2335	46.5763	6.8698	4
CH	1609	Fiaugères		FR	Veveyse District	1007	Saint-Martin (FR)	2335	46.5873	6.8927	4
CH	1609	Fiaugères		FR	Veveyse District	1007	Saint-Martin (FR)	2335	46.5873	6.8927	4
CH	1609	Besencens		FR	Veveyse District	1007	Saint-Martin (FR)	2335	46.5875	6.8687	4
CH	1611	Le Crêt-près-Semsales		FR	Veveyse District	1007	La Verrerie	2338	46.609	6.9097	4
CH	1614	Granges (Veveyse)		FR	Veveyse District	1007	Granges (Veveyse)	2328	46.5261	6.83	4
CH	1615	Bossonnens		FR	Veveyse District	1007	Bossonnens	2323	46.5285	6.8525	4
CH	1616	Attalens		FR	Veveyse District	1007	Attalens	2321	46.5056	6.8504	4
CH	1617	Tatroz		FR	Veveyse District	1007	Attalens	2321	46.527	6.8669	4
CH	1617	Remaufens		FR	Veveyse District	1007	Remaufens	2333	46.5287	6.8826	4
CH	1618	Châtel-St-Denis		FR	Veveyse District	1007	Châtel-Saint-Denis	2325	46.5269	6.9008	4
CH	1619	Les Paccots		FR	Veveyse District	1007	Châtel-Saint-Denis	2325	46.5241	6.9463	4
CH	1623	Semsales		FR	Veveyse District	1007	Semsales	2336	46.5732	6.9295	4
CH	1624	Progens		FR	Veveyse District	1007	Semsales	2336	46.5699	6.9557	4
CH	1624	La Verrerie		FR	Veveyse District	1007	La Verrerie	2338	46.5995	6.9203	4
CH	1624	Progens		FR	Veveyse District	1007	La Verrerie	2338	46.5848	6.9111	4
CH	1624	Grattavache		FR	Veveyse District	1007	La Verrerie	2338	46.596	6.9134	4
CH	1699	Porsel		FR	Veveyse District	1007	Le Flon	2337	46.6015	6.8658	4
CH	1699	Porsel		FR	Veveyse District	1007	Le Flon	2337	46.6015	6.8658	4
CH	1699	Pont (Veveyse)		FR	Veveyse District	1007	Le Flon	2337	46.5885	6.8513	4
CH	1699	Bouloz		FR	Veveyse District	1007	Le Flon	2337	46.6124	6.8827	4
CH	1201	Genève		GE	Geneva	2500	Genève	6621	46.2022	6.1457	4
CH	1202	Genève		GE	Geneva	2500	Genève	6621	46.2022	6.1457	4
CH	1203	Genève		GE	Geneva	2500	Genève	6621	46.2022	6.1457	4
CH	1204	Genève		GE	Geneva	2500	Genève	6621	46.2022	6.1457	4
CH	1205	Genève		GE	Geneva	2500	Genève	6621	46.2022	6.1457	4
CH	1206	Genève		GE	Geneva	2500	Genève	6621	46.2022	6.1457	4
CH	1207	Genève		GE	Geneva	2500	Genève	6621	46.2022	6.1457	4
CH	1208	Genève		GE	Geneva	2500	Genève	6621	46.2022	6.1457	4
CH	1209	Genève		GE	Geneva	2500	Genève	6621	46.2022	6.1457	4
CH	1212	Grand-Lancy		GE	Geneva	2500	Lancy	6628	46.1788	6.1229	4
CH	1213	Petit-Lancy		GE	Geneva	2500	Lancy	6628	46.1965	6.1136	4
CH	1213	Onex		GE	Geneva	2500	Onex	6631	46.184	6.1024	4
CH	1214	Vernier		GE	Geneva	2500	Vernier	6643	46.217	6.085	4
CH	1215	Genève		GE	Geneva	2500	Le Grand-Saconnex	6623	46.2358	6.1192	4
CH	1216	Cointrin		GE	Geneva	2500	Meyrin	6630	46.2267	6.1055	4
CH	1217	Meyrin		GE	Geneva	2500	Meyrin	6630	46.2342	6.0802	4
CH	1218	Le Grand-Saconnex		GE	Geneva	2500	Le Grand-Saconnex	6623	46.2319	6.1209	4
CH	1219	Châtelaine		GE	Geneva	2500	Vernier	6643	46.2114	6.1089	4
CH	1219	Aïre		GE	Geneva	2500	Vernier	6643	46.1951	6.0995	4
CH	1219	Le Lignon		GE	Geneva	2500	Vernier	6643	46.2074	6.0984	4
CH	1220	Les Avanchets		GE	Geneva	2500	Vernier	6643	46.2217	6.1081	4
CH	1222	Vésenaz		GE	Geneva	2500	Collonge-Bellerive	6616	46.2403	6.1975	4
CH	1223	Cologny		GE	Geneva	2500	Cologny	6617	46.2167	6.1804	4
CH	1224	Chêne-Bougeries		GE	Geneva	2500	Chêne-Bougeries	6612	46.1984	6.1864	4
CH	1225	Chêne-Bourg		GE	Geneva	2500	Chêne-Bourg	6613	46.1953	6.1941	4
CH	1226	Thônex		GE	Geneva	2500	Thônex	6640	46.1881	6.199	4
CH	1227	Les Acacias		GE	Geneva	2500	Genève	6621	46.1917	6.1361	4
CH	1227	Carouge GE		GE	Geneva	2500	Carouge (GE)	6608	46.1917	6.1361	3
CH	1228	Plan-les-Ouates		GE	Geneva	2500	Plan-les-Ouates	6633	46.1679	6.1166	4
CH	1231	Conches		GE	Geneva	2500	Chêne-Bougeries	6612	46.185	6.1739	4
CH	1232	Confignon		GE	Geneva	2500	Confignon	6618	46.1734	6.0844	4
CH	1233	Bernex		GE	Geneva	2500	Bernex	6607	46.1765	6.0754	4
CH	1234	Vessy		GE	Geneva	2500	Veyrier	6645	46.1831	6.1668	4
